     2.10           OBSERVATION DATA    G (GPS)             RINEX VERSION / TYPE
teqc  2002Mar14                         20110314 18:33:12UTCPGM / RUN BY / DATE
Linux 2.0.36|Pentium II|gcc -static|Linux|486/DX+           COMMENT
teqc  2002Mar14     GSI, JAPAN          20110311 04:16:29UTCCOMMENT
3090                                                        MARKER NAME
GSI, JAPAN          GEOSPATIAL INFORMATION AUTHORITY OF JAPAOBSERVER / AGENCY
00000               TRIMBLE 5700        Nav 1.24 Sig 0.00   REC # / TYPE / VERS
                    TRM29659.00     GSI                     ANT # / TYPE
 -3878653.5481  3514734.8381  3632596.8831                  APPROX POSITION XYZ
        0.0000        0.0000        0.0000                  ANTENNA: DELTA H/E/N
     1     1                                                WAVELENGTH FACT L1/2
     6    L1    C1    L2    P2    S1    S2                  # / TYPES OF OBSERV
    30.0000                                                 INTERVAL
teqc windowed: start @ 2011 Mar 11 00:00:00.000             COMMENT
teqc windowed:  end  @ 2011 Mar 11 23:59:59.000             COMMENT
  2011     3    11     0     0    0.0000000     GPS         TIME OF FIRST OBS
                                                            END OF HEADER
 11  3 11  0  0  0.0000000  0  7G 2G 4G 5G10G13G17G23
  -9426532.809    22140630.747    -7323993.2834   22140626.5824         46.000
        38.0004
 -22304066.027    20415894.483   -17334999.5964   20415892.0894         49.500
        45.5004
  -3533745.547    23632516.221    -2701201.0194   23632515.6094         43.000
        29.5004
 -24543158.574    20395982.913   -19053566.6714   20395980.7254         52.750
        44.7504
 -22614786.168    21120746.466   -17564973.6534   21120743.9374         51.250
        41.0004
 -18896533.059    21434529.795   -14698099.0504   21434527.8844         50.750
        41.7504
 -17261340.816    22914289.128   -13423509.2524   22914285.4454         45.750
        33.5004
 11  3 11  0  0 30.0000000  0  7G 2G 4G 5G10G13G17G23
  -9509161.660    22124907.561    -7388379.3624   22124903.0844         45.250
        38.2504
 -22324666.273    20411974.407   -17351051.7344   20411972.1424         52.750
        45.5004
  -3624520.285    23615242.948    -2771934.4974   23615241.9804         43.750
        30.2504
 -24576273.801    20389681.294   -19079370.7154   20389678.8114         52.500
        45.0004
 -22624925.598    21118816.859   -17572874.4864   21118814.5164         52.000
        41.5004
 -18824719.898    21448195.398   -14642140.7744   21448193.4394         48.250
        41.0004
 -17206671.164    22924692.262   -13380909.5104   22924688.1244         47.250
        32.5004
 11  3 11  0  1  0.0000000  0  7G 2G 4G 5G10G13G17G23
  -9591697.484    22109200.798    -7452692.9664   22109196.5444         46.500
        38.2504
 -22344977.145    20408109.339   -17366878.3694   20408107.2834         52.500
        46.0004
  -3715075.699    23598010.360    -2842497.1284   23598010.2614         42.500
        30.0004
 -24608969.016    20383459.371   -19104847.4734   20383457.2224         52.000
        44.7504
 -22634422.191    21117009.907   -17580274.4154   21117007.2374         51.750
        41.5004
 -18752490.461    21461939.967   -14585858.1254   21461938.4934         48.250
        41.0004
 -17151550.672    22935181.312   -13337958.4764   22935177.5854         47.500
        33.0004
 11  3 11  0  1 30.0000000  0  7G 2G 4G 5G10G13G17G23
  -9674139.160    22093512.985    -7516933.1944   22093508.7774         47.250
        38.0004
 -22364997.660    20404299.669   -17382478.7714   20404297.2024         53.000
        45.7504
  -3805410.996    23580820.068    -2912888.2214   23580819.3204         41.750
        30.0004
 -24641244.715    20377317.554   -19129997.3524   20377315.3264         52.250
        45.0004
 -22643275.531    21115325.049   -17587173.1264   21115322.3504         51.750
        41.2504
 -18679846.727    21475763.659   -14529252.6614   21475761.8184         49.000
        41.5004
 -17095980.961    22945755.796   -13294657.4064   22945752.2284         46.000
        32.7504
 11  3 11  0  2  0.0000000  0  7G 2G 4G 5G10G13G17G23
  -9756485.449    22077842.818    -7581099.1064   22077838.8964         46.500
        38.2504
 -22384727.004    20400545.321   -17397852.2814   20400542.5974         52.500
        45.7504
  -3895525.852    23563671.868    -2983107.5324   23563671.4074         40.750
        29.5004
 -24673101.547    20371255.383   -19154820.8284   20371252.9604         52.750
        45.0004
 -22651485.762    21113762.587   -17593570.6844   21113760.1364         51.750
        41.7504
 -18606790.559    21489665.831   -14472325.8124   21489664.1084         49.000
        41.7504
 -17039964.262    22956414.842   -13251008.0574   22956411.6734         45.500
        32.0004
 11  3 11  0  2 30.0000000  0  7G 2G 4G 5G10G13G17G23
  -9838735.117    22062191.315    -7645189.7384   22062187.1884         47.500
        38.0004
 -22404164.281    20396846.347   -17412998.2144   20396843.7424         53.250
        45.5004
  -3985419.684    23546565.510    -3053154.6484   23546564.3194         42.250
        29.7504
 -24704540.070    20365272.937   -19179318.3584   20365270.4194         52.250
        45.0004
 -22659052.840    21112322.737   -17599467.1014   21112320.0454         52.000
        41.2504
 -18533324.457    21503645.913   -14415079.5254   21503644.1084         49.750
        41.7504
 -16983502.566    22967159.343   -13207011.9094   22967155.7144         45.500
        32.0004
 11  3 11  0  3  0.0000000  0  7G 2G 4G 5G10G13G17G23
  -9920887.691    22046558.297    -7709204.6954   22046553.8674         45.250
        39.0004
 -22423309.926    20393203.226   -17427916.8884   20393200.7024         52.250
        45.5004
  -4075092.754    23529501.307    -3123029.6984   23529500.7224         42.500
        30.7504
 -24735561.941    20359369.563   -19203491.2134   20359367.3134         51.250
        45.0004
 -22665977.645    21111004.813   -17604863.0514   21111002.7114         51.750
        41.5004
 -18459451.438    21517703.596   -14357516.1584   21517701.7384         49.750
        41.5004
 -16926599.746    22977988.284   -13162672.0304   22977984.1014         47.000
        32.0004
 11  3 11  0  3 30.0000000  0  7G 2G 4G 5G10G13G17G23
 -10002941.691    22030944.055    -7773142.8444   22030939.4864         47.500
        38.7504
 -22442162.582    20389615.618   -17442607.2544   20389613.2614         53.500
        46.0004
  -4164544.645    23512479.200    -3192732.4084   23512478.7754         42.500
        30.5004
 -24766167.191    20353545.658   -19227339.4344   20353543.1594         51.750
        45.5004
 -22672259.656    21109809.575   -17609758.1334   21109807.1404         50.750
        42.0004
 -18385173.438    21531838.349   -14299637.2244   21531836.3724         49.500
        41.0004
 -16869256.621    22988900.248   -13117989.0654   22988895.7504         45.750
        32.0004
 11  3 11  0  4  0.0000000  0  7G 2G 4G 5G10G13G17G23
 -10084896.523    22015348.668    -7837003.7224   22015344.2694         47.750
        38.5004
 -22460721.926    20386083.743   -17457069.0554   20386081.6644         52.500
        45.5004
  -4253775.402    23495499.578    -3262262.8164   23495498.5294         40.500
        29.7504
 -24796357.527    20347800.487   -19250864.3424   20347797.9684         51.500
        45.5004
 -22677899.730    21108736.360   -17614152.9794   21108733.7814         50.750
        42.2504
 -18310493.469    21546049.536   -14241445.0864   21546048.0034         49.000
        41.0004
 -16811476.594    22999895.080   -13072965.6864   22999891.3074         46.000
        31.5004
 11  3 11  0  4 30.0000000  0  7G 2G 4G 5G10G13G17G23
 -10166750.168    21999771.836    -7900785.7464   21999767.6044         45.750
        39.0004
 -22478986.547    20382608.177   -17471301.2184   20382605.9124         53.250
        45.5004
  -4342783.574    23478561.239    -3331619.7354   23478560.3274         41.500
        29.5004
 -24826132.484    20342134.632   -19274065.5814   20342132.1864         52.000
        45.2504
 -22682897.113    21107785.386   -17618047.0324   21107782.8144         51.750
        42.0004
 -18235412.426    21560336.705   -14182940.4154   21560335.2434         48.000
        40.7504
 -16753260.535    23010973.453   -13027602.5444   23010969.2804         47.250
        32.0004
 11  3 11  0  5  0.0000000  0  7G 2G 4G 5G10G13G17G23
 -10248500.148    21984215.650    -7964486.9904   21984211.2804         45.250
        39.0004
 -22496954.516    20379188.808   -17485302.2204   20379186.8494         53.000
        46.0004
  -4431567.844    23461665.849    -3400802.2104   23461665.6934         40.500
        31.5004
 -24855491.699    20336547.679   -19296942.8524   20336545.3494         51.500
        45.0004
 -22687251.102    21106956.884   -17621439.7444   21106953.9584         53.000
        42.0004
 -18159931.852    21574700.232   -14124124.4204   21574699.0464         48.500
        41.5004
 -16694609.922    23022133.938   -12981900.7594   23022130.6444         45.500
        32.5004
 11  3 11  0  5 30.0000000  0  7G 2G 4G 5G10G13G17G23
 -10330146.180    21968678.984    -8028107.2404   21968674.4214         45.000
        38.2504
 -22514625.688    20375826.355   -17499071.9714   20375823.9354         52.250
        45.7504
  -4520128.250    23444814.020    -3469810.3044   23444812.8574         41.500
        30.7504
 -24884436.375    20331039.725   -19319497.1274   20331037.2064         51.250
        45.0004
 -22690962.344    21106250.592   -17624331.6004   21106248.0284         51.000
        42.2504
 -18084054.734    21589139.345   -14064999.4474   21589138.0534         49.000
        40.2504
 -16635527.516    23033377.363   -12935862.5184   23033373.4154         46.000
        32.0004
 11  3 11  0  6  0.0000000  0  7G 2G 4G 5G10G13G17G23
 -10411683.234    21953162.993    -8091642.5734   21953158.4124         46.000
        39.0004
 -22531995.672    20372520.939   -17512607.0184   20372518.4574         52.000
        46.0004
  -4608460.914    23428004.634    -3538640.9194   23428003.8504         41.000
        30.0004
 -24912964.164    20325610.630   -19341726.5584   20325608.4024         52.250
        45.0004
 -22694027.320    21105667.234   -17626719.8704   21105664.6934         51.750
        42.0004
 -18007779.500    21603654.042   -14005564.2414   21603652.5534         48.750
        40.0004
 -16576012.066    23044703.165   -12889486.8784   23044699.1704         46.000
        31.0004
 11  3 11  0  6 30.0000000  0  7G 2G 4G 5G10G13G17G23
 -10493107.375    21937668.450    -8155089.9174   21937664.0784         46.250
        38.7504
 -22549061.039    20369273.392   -17525904.6794   20369270.7404         53.000
        45.5004
  -4696562.820    23411238.484    -3607291.6804   23411237.8044         40.500
        28.5004
 -24941072.730    20320261.832   -19363629.3044   20320259.3514         50.750
        45.2504
 -22696443.574    21105207.681   -17628602.6284   21105204.7854         52.000
        41.5004
 -17931106.082    21618244.432   -13945818.7484   21618242.9664         48.250
        40.0004
 -16516063.176    23056111.302   -12842773.4674   23056106.5644         44.500
        31.2504
 11  3 11  0  7  0.0000000  0  7G 2G 4G 5G10G13G17G23
 -10574422.582    21922194.027    -8218452.3794   21922189.9894         45.000
        38.5004
 -22565826.148    20366082.853   -17538968.3694   20366080.1964         53.500
        45.7504
  -4784438.625    23394516.681    -3675766.2804   23394515.8324         39.750
        29.7504
 -24968768.184    20314991.693   -19385210.1534   20314989.4484         51.500
        45.2504
 -22698216.723    21104870.357   -17629984.2824   21104867.2294         52.250
        41.7504
 -17854041.793    21632909.332   -13885768.6874   21632907.7854         48.500
        40.5004
 -16455688.129    23067599.678   -12795727.9794   23067595.6004         41.750
        30.2504
 11  3 11  0  7 30.0000000  0  7G 2G 4G 5G10G13G17G23
 -10655627.793    21906741.634    -8281729.1344   21906737.4244         47.250
        39.2504
 -22582290.312    20362949.993   -17551797.5884   20362947.3584         53.500
        45.5004
  -4872088.355    23377837.805    -3744064.7364   23377836.9344         40.250
        30.5004
 -24996051.340    20309799.786   -19406469.7324   20309797.5204         52.000
        45.5004
 -22699347.211    21104655.100   -17630865.1584   21104652.3324         52.000
        42.0004
 -17776589.266    21647647.949   -13825416.1354   21647646.4464         49.250
        40.0004
 -16394889.062    23079169.437   -12748352.1264   23079165.4214         44.500
        31.2504
 11  3 11  0  8  0.0000000  0  7G 2G 4G 5G10G13G17G23
 -10736722.621    21891309.552    -8344919.8664   21891305.0894         47.000
        39.0004
 -22598453.980    20359874.389   -17564392.6444   20359871.9944         53.000
        45.5004
  -4959512.250    23361201.525    -3812187.2164   23361200.7654         40.500
        31.2504
 -25022923.898    20304686.113   -19427409.3654   20304683.8364         52.000
        45.0004
 -22699836.289    21104561.963   -17631246.2284   21104559.1104         51.250
        41.7504
 -17698751.898    21662460.058   -13764763.6884   21662458.0884         49.250
        40.5004
 -16333669.914    23090818.655   -12700648.8954   23090815.0034         43.500
        32.0004
 11  3 11  0  8 30.0000000  0  7G 2G 4G 5G10G13G17G23
 -10817707.043    21875898.878    -8408024.5824   21875894.3754         47.750
        38.7504
 -22614317.375    20356855.371   -17576753.7154   20356853.3674         52.750
        45.7504
  -5046711.395    23344608.157    -3880134.5534   23344607.3984         41.000
        31.2504
 -25049387.645    20299650.431   -19448030.4394   20299647.9674         52.500
        45.5004
 -22699685.289    21104590.591   -17631128.5534   21104587.4574         51.250
        41.2504
 -17620533.223    21677344.950   -13703814.1204   21677342.7574         48.500
        40.0004
 -16272033.820    23102547.790   -12652620.7784   23102543.5274         44.250
        32.5004
 11  3 11  0  9  0.0000000  0  7G 2G 4G 5G10G13G17G23
 -10898580.867    21860509.045    -8471043.1034   21860504.2454         48.000
        39.2504
 -22629881.078    20353893.689   -17588881.2784   20353891.4974         52.500
        45.7504
  -5133686.371    23328057.716    -3947907.2144   23328056.6204         41.750
        33.2504
 -25075444.820    20294692.063   -19468334.7014   20294689.5054         51.750
        45.5004
 -22698896.297    21104740.914   -17630513.7244   21104738.1104         50.750
        41.2504
 -17541936.762    21692300.573   -13642570.1594   21692299.3924         48.750
        40.0004
 -16209984.207    23114355.600   -12604270.4494   23114351.8554         44.500
        33.5004
 11  3 11  0  9 30.0000000  0  7G 2G 4G 5G10G13G17G23
 -10979343.547    21845140.147    -8533975.0364   21845135.8664         48.750
        39.5004
 -22645144.730    20350989.123   -17600775.0364   20350987.1964         53.250
        45.7504
  -5220437.711    23311549.019    -4015505.6134   23311548.0584         40.500
        32.0004
 -25101096.750    20289810.262   -19488323.1994   20289808.0334         51.500
        45.2504
 -22697470.062    21105012.315   -17629402.3644   21105009.3574         51.000
        41.7504
 -17462965.363    21707328.220   -13581034.0244   21707326.6314         48.500
        39.7504
 -16147524.176    23126241.616   -12555600.3294   23126237.3794         44.500
        33.0004
 11  3 11  0 10  0.0000000  0  7G 2G 4G 5G10G13G17G23
 -11059992.660    21829793.482    -8596818.4614   21829788.8364         48.500
        39.5004
 -22660106.691    20348142.066   -17612433.7054   20348139.6644         52.750
        45.5004
  -5306964.137    23295082.666    -4082928.7504   23295082.8784         40.000
        30.7504
 -25126343.547    20285006.345   -19507996.0204   20285003.3924         50.250
        45.0004
 -22695406.090    21105405.062   -17627794.0624   21105402.0714         51.000
        41.2504
 -17383620.500    21722427.703   -13519206.9044   21722425.6334         48.500
        38.7504
 -16084655.004    23138204.722   -12506611.3714   23138200.8314         44.750
        32.5004
 11  3 11  0 10 30.0000000  0  7G 2G 4G 5G10G13G17G23
 -11140526.758    21814468.532    -8659572.2814   21814463.8014         48.500
        40.0004
 -22674765.820    20345352.330   -17623856.3924   20345349.9054         53.500
        45.5004
  -5393264.828    23278660.691    -4150175.9944   23278659.6084         39.750
        29.2504
 -25151185.332    20280278.881   -19527353.2244   20280276.3404         49.750
        45.2504
 -22692704.438    21105919.203   -17625688.8474   21105916.3154         50.000
        41.0004
 -17303904.449    21737597.075   -13457090.5484   21737595.3254         48.750
        39.2504
 -16021378.500    23150246.200   -12457305.0524   23150241.6184         43.750
        31.0004
 11  3 11  0 11  0.0000000  0  7G 2G 4G 5G10G13G17G23
 -11220943.496    21799165.555    -8722234.6394   21799161.2424         48.250
        40.2504
 -22689120.477    20342621.094   -17635041.8284   20342618.3554         53.500
        46.0004
  -5479338.832    23262280.999    -4217246.6194   23262280.4524         40.250
        30.0004
 -25175622.348    20275628.379   -19546395.0244   20275625.9984         48.500
        45.2504
 -22689364.836    21106554.572   -17623086.5534   21106551.4144         48.500
        41.7504
 -17223818.586    21752837.146   -13394686.0474   21752835.2604         48.500
        40.0004
 -15957696.457    23162364.445   -12407682.7224   23162360.7044         43.000
        30.5004
 11  3 11  0 11 30.0000000  0  7G 2G 4G 5G10G13G17G23
 -11301243.473    21783884.844    -8784806.0134   21783880.6304         48.750
        40.5004
 -22703172.070    20339946.975   -17645991.1114   20339944.4754         52.750
        46.0004
  -5565187.730    23245945.145    -4284141.8484   23245943.8334         42.250
        29.7504
 -25199657.613    20271054.679   -19565123.7704   20271052.3054         48.750
        45.5004
 -22685389.855    21107311.074   -17619989.1314   21107308.1034         48.750
        41.7504
 -17143367.574    21768146.066   -13331997.0054   21768145.2394         48.500
        39.5004
 -15893613.195    23174558.581   -12357747.7534   23174554.7404         41.750
        29.0004
 11  3 11  0 12  0.0000000  0  7G 2G 4G 5G10G13G17G23
 -11381425.414    21768626.757    -8847285.4264   21768621.9564         49.000
        40.5004
 -22716919.633    20337330.924   -17656703.4834   20337328.2514         54.000
        45.5004
  -5650810.902    23229652.323    -4350861.1654   23229650.1424         42.750
        32.2504
 -25223291.492    20266557.096   -19583539.7674   20266554.6484         48.500
        45.5004
 -22680779.914    21108188.207   -17616396.9694   21108185.3894         48.000
        42.0004
 -17062553.332    21783525.286   -13269024.9504   21783523.7324         48.250
        39.2504
 -15829130.750    23186829.895   -12307501.7104   23186825.4254         39.750
        25.0004
 11  3 11  0 12 30.0000000  0  7G 2G 4G 5G10G13G17G23
 -11461486.344    21753391.915    -8909670.5364   21753387.0414         49.250
        40.0004
 -22730360.715    20334773.396   -17667177.0634   20334770.6094         55.250
        46.2504
  -5736206.379    23213401.460    -4417403.0554   23213400.2664         42.250
        33.0004
 -25246523.289    20262136.384   -19601642.4504   20262134.1794         48.750
        45.5004
 -22675533.984    21109186.460   -17612309.2024   21109183.5674         47.750
        41.5004
 -16981376.984    21798972.690   -13205770.6984   21798971.5424         48.250
        39.2504
 -15764249.918    23199175.836   -12256945.2464   23199171.9444         37.500
        23.2504
 11  3 11  0 13  0.0000000  0  7G 2G 4G 5G10G13G17G23
 -11541428.227    21738179.014    -8971962.8864   21738174.7764         48.750
        40.0004
 -22743497.777    20332273.256   -17677413.7284   20332270.8674         53.500
        45.7504
  -5821377.391    23197193.838    -4483770.0184   23197192.3024         43.250
        33.2504
 -25269357.191    20257791.649   -19619435.0844   20257788.9954         49.500
        45.5004
 -22669655.738    21110304.976   -17607728.7444   21110302.2674         50.250
        41.7504
 -16899844.305    21814487.836   -13142238.8004   21814486.4764         48.000
        39.0004
 -15698976.434    23211597.521   -12206082.8364   23211593.1014         37.500
        21.0004
 11  3 11  0 13 30.0000000  0  7G 2G 4G 5G10G13G17G23
 -11621253.051    21722989.082    -9034164.0134   21722984.6374         48.500
        40.0004
 -22756333.895    20329830.577   -17687415.8884   20329828.4044         53.500
        46.0004
  -5906327.191    23181027.709    -4549964.6414   23181027.3554         41.750
        33.5004
 -25291797.504    20253521.287   -19636921.0084   20253518.6434         51.000
        45.5004
 -22663149.574    21111543.166   -17602658.9874   21111540.4594         49.500
        41.5004
 -16817961.199    21830069.357   -13078433.8214   21830067.9644         48.500
        39.5004
 -15633316.301    23224093.192   -12154919.1824   23224087.8514         36.500
        20.0004
 11  3 11  0 14  0.0000000  0  7G 2G 4G 5G10G13G17G23
 -11700958.551    21707821.507    -9096272.1604   21707816.6334         47.500
        39.5004
 -22768867.062    20327445.669   -17697182.0024   20327443.1494         54.000
        45.7504
  -5991054.578    23164905.191    -4615985.9534   23164904.4904         42.500
        33.5004
 -25313844.371    20249325.591   -19654100.3704   20249323.3244         48.500
        45.5004
 -22656015.410    21112900.627   -17597099.8864   21112897.9374         48.000
        41.5004
 -16735729.266    21845717.290   -13014357.0414   21845716.3774         48.000
        39.0004
 -15567270.914    23236660.253   -12103455.2124   23236655.9774         34.250
        18.5004
 11  3 11  0 14 30.0000000  0  7G 2G 4G 5G10G13G17G23
 -11780542.820    21692676.737    -9158285.8484   21692672.9884         46.750
        39.7504
 -22781096.137    20325118.662   -17706711.1424   20325116.1984         53.250
        46.0004
  -6075558.145    23148824.619    -4681832.8734   23148823.7674         41.250
        32.7504
 -25335497.785    20245205.193   -19670973.1434   20245202.8394         51.500
        45.5004
 -22648252.930    21114377.666   -17591051.1764   21114374.7474         48.250
        41.2504
 -16653150.426    21861432.272   -12950009.9454   21861430.6554         48.500
        38.7504
 -15500841.758    23249301.363   -12051692.2974   23249296.8204         32.500
        17.7504
 11  3 11  0 15  0.0000000  0  7G 2G 4G 5G10G13G17G23
 -11860001.668    21677556.197    -9220201.8114   21677552.1724         45.500
        39.7504
 -22793017.117    20322850.007   -17716000.2374   20322847.4014         53.500
        46.0004
  -6159835.391    23132786.996    -4747503.4294   23132786.1124         43.250
        32.5004
 -25356755.941    20241160.023   -19687537.9264   20241157.1634         51.500
        45.5004
 -22639859.992    21115974.530   -17584511.2194   21115971.9594         49.000
        41.5004
 -16570223.887    21877211.638   -12885391.9214   21877210.9694         47.750
        39.0004
 -15434028.5121   23262015.405   -11999630.0085   23262010.9714         33.5001
        16.2505
 11  3 11  0 15 30.0000000  0  8G 2G 4G 5G 7G10G13G17G23
 -11939331.582    21662460.612    -9282017.3134   21662456.2054         46.000
        39.7504
 -22804627.719    20320640.605   -17725047.4504   20320638.1324         54.000
        45.7504
  -6243883.875    23116793.629    -4812995.7374   23116792.2034         41.750
        32.0004
    -55297.4921   25193814.363

 -25377617.898    20237189.965   -19703793.9764   20237187.3564         51.500
        45.5004
 -22630835.711    21117691.739   -17577479.2834   21117689.4184         50.250
        41.5004
 -16486950.609    21893058.496   -12820503.6954   21893057.2614         48.500
        38.5004
 -15366831.8011   23274801.376

 11  3 11  0 16  0.0000000  0  8G 2G 4G 5G 7G10G13G17G23
 -12018530.586    21647389.584    -9343730.7734   21647385.0324         46.500
        40.5004
 -22815926.242    20318490.744   -17733851.4804   20318487.9894         54.750
        45.7504
  -6327702.684    23100842.655    -4878309.0604   23100841.6244         41.000
        31.5004
   -139118.230    25177864.009      -98387.7405   25177865.8304         36.000
        19.5005
 -25398083.895    20233295.353   -19719741.5004   20233292.5774         51.000
        45.5004
 -22621180.066    21119529.453   -17569955.3954   21119526.8534         49.500
        41.2504
 -16403332.547    21908970.824   -12755346.7814   21908969.4064         48.250
        38.7504
 -15299253.793    23287663.794

 11  3 11  0 16 30.0000000  0  8G 2G 4G 5G 7G10G13G17G23
 -12097596.461    21632343.828    -9405340.5354   21632338.6824         47.500
        40.2504
 -22826911.562    20316400.113   -17742411.4714   20316397.7254         52.750
        45.5004
  -6411290.863    23084936.977    -4943442.7054   23084935.5954         42.500
        32.2504
   -222951.305    25161911.920     -163712.2154   25161912.2704         37.500
        17.5004
 -25418154.227    20229476.225   -19735380.6924   20229473.7174         49.500
        45.5004
 -22610893.117    21121486.649   -17561939.5874   21121484.4214         49.500
        42.0004
 -16319371.387    21924947.866   -12689922.5524   21924946.6524         47.750
        38.5004
 -15231295.7341   23300595.735

 11  3 11  0 17  0.0000000  0  8G 2G 4G 5G 7G10G13G17G23
 -12176527.594    21617323.625    -9466845.2874   21617318.3364         46.500
        40.2504
 -22837582.352    20314369.445   -17750726.3954   20314367.1784         54.000
        46.0004
  -6494647.816    23069074.534    -5008396.1374   23069073.3854         42.750
        32.0004
   -306792.938    25145955.567     -229043.1994   25145958.5544         38.250
        17.7504
 -25437829.234    20225732.071   -19750711.8554   20225729.6524         50.000
        45.5004
 -22599975.441    21123564.369   -17553432.3064   21123562.1344         50.000
        41.0004
 -16235069.297    21940990.403   -12624232.6894   21940989.0254         48.750
        39.0004
 -15162959.7581   23313594.793

 11  3 11  0 17 30.0000000  0  8G 2G 4G 5G 7G10G13G17G23
 -12255323.891    21602329.014    -9528244.9894   21602324.4104         47.250
        40.5004
 -22847939.102    20312398.648   -17758796.5694   20312396.2974         54.000
        45.7504
  -6577774.652    23053256.942    -5073170.2564   23053254.9174         42.500
        32.0004
   -390641.809    25129999.862     -294379.7424   25130002.4844         39.250
        21.7504
 -25457111.504    20222062.745   -19765736.9844   20222060.3924         49.500
        45.5004
 -22588429.281    21125761.423   -17544435.2804   21125758.9664         48.250
        41.0004
 -16150430.281    21957096.602   -12558280.2744   21957095.3534         48.000
        38.2504
 -15094249.7071   23326674.675

 11  3 11  0 18  0.0000000  0  8G 2G 4G 5G 7G10G13G17G23
 -12333983.492    21587360.304    -9589538.1654   21587356.3684         46.250
        41.2504
 -22857980.992    20310487.577   -17766621.4194   20310485.3284         53.750
        46.0004
  -6660670.883    23037481.587    -5137764.6674   23037480.5244         43.500
        32.0004
   -474495.1171   25114042.902     -359719.7985   25114046.8204         35.5001
        21.0005
 -25476001.402    20218468.566   -19780456.3784   20218465.6544         51.500
        46.0004
 -22576255.102    21128078.438   -17534948.9024   21128075.5204         48.250
        41.7504
 -16065456.383    21973266.591   -12492066.9424   21973265.1354         48.750
        38.2504
                  23339818.113

 11  3 11  0 18 30.0000000  0  7G 2G 4G 5G 7G10G13G17
 -12412503.598    21572418.933    -9650722.6414   21572414.4874         46.500
        41.5004
 -22867705.762    20308637.223   -17774199.1504   20308634.6714         54.000
        45.7504
  -6743334.691    23021750.901    -5202178.0064   23021749.2144         42.750
        33.0004
   -558348.418    25098086.767     -425059.7974   25098089.3874         37.500
        21.2504
 -25494498.637    20214948.330   -19794869.7804   20214945.4874         50.250
        45.5004
 -22563452.496    21130514.462   -17524972.8494   21130512.1434         47.250
        41.0004
 -15980148.926    21989499.841   -12425593.6884   21989498.7944         47.500
        38.0004
 11  3 11  0 19  0.0000000  0  7G 2G 4G 5G 7G10G13G17
 -12490883.578    21557503.720    -9711797.9284   21557498.8594         48.500
        41.2504
 -22877113.344    20306846.883   -17781529.7204   20306844.2134         54.500
        45.5004
  -6825766.891    23006064.147    -5266410.8524   23006063.3224         43.000
        33.5004
   -642199.605    25082129.552     -490398.1584   25082132.2054         38.000
        21.7504
 -25512604.695    20211502.659   -19808978.3934   20211500.1624         50.500
        45.7504
 -22550023.109    21133069.841   -17514508.3674   21133067.6404         49.500
        41.0004
 -15894511.145    22005796.815   -12358863.0294   22005795.0654         48.750
        38.2504
 11  3 11  0 19 30.0000000  0  7G 2G 4G 5G 7G10G13G17
 -12569121.363    21542615.618    -9772762.4244   21542610.7774         48.750
        41.0004
 -22886202.758    20305117.024   -17788612.3834   20305114.6684         54.250
        46.0004
  -6907966.754    22990422.220    -5330462.6564   22990421.1174         43.500
        33.0004
   -726045.410    25066175.404     -555732.3044   25066176.9804         39.250
        20.0004
 -25530320.117    20208131.576   -19822782.5994   20208129.0804         50.250
        45.5004
 -22535966.914    21135744.740   -17503555.4684   21135742.1614         49.250
        41.0004
 -15808545.004    22022155.656   -12291876.5024   22022153.4204         48.000
        37.5004
 11  3 11  0 20  0.0000000  0  7G 2G 4G 5G 7G10G13G17
 -12647215.871    21527754.721    -9833615.2614   21527750.0574         49.000
        41.0004
 -22894973.324    20303448.450   -17795446.5994   20303445.9374         54.000
        45.5004
  -6989934.059    22974823.370    -5394333.2604   22974823.8554         44.250
        33.2504
   -809883.152    25050220.227     -621060.1874   25050222.4224         37.500
        18.5004
 -25547646.305    20204834.630   -19836283.5094   20204831.7994         50.500
        45.7504
 -22521285.941    21138538.768   -17492115.7324   21138536.0064         50.250
        41.0004
 -15722253.246    22038576.445   -12224636.2344   22038574.4434         48.250
        37.5004
 11  3 11  0 20 30.0000000  0  7G 2G 4G 5G 7G10G13G17
 -12725167.234    21512920.992    -9894356.5694   21512916.5214         47.000
        41.2504
 -22903426.145    20301839.756   -17802033.2144   20301837.4264         53.750
        46.0004
  -7071670.797    22959269.653    -5458024.1924   22959269.3014         43.750
        33.5004
   -893711.863    25034268.295     -686381.0104   25034269.7064         36.750
        18.5004
 -25564585.969    20201611.174   -19849483.2464   20201608.1644         50.500
        45.5004
 -22505982.707    21141450.803   -17480191.1244   21141447.9264         50.500
        41.0004
 -15635640.648    22055058.196   -12157145.9574   22055055.8924         47.500
        37.0004
 11  3 11  0 21  0.0000000  0  7G 2G 4G 5G 7G10G13G17
 -12802973.344    21498115.029    -9954984.6724   21498110.5194         48.250
        41.2504
 -22911559.848    20300291.866   -17808371.1724   20300289.9124         52.250
        46.0004
  -7153175.875    22943760.278    -5521534.6474   22943759.2144         45.250
        33.7504
   -977528.062    25018318.670     -751692.0864   25018319.8574         36.250
        18.2504
 -25581139.316    20198460.929   -19862381.9474   20198458.3734         51.000
        45.5004
 -22490057.562    21144481.324   -17467781.9174   21144478.1404         50.500
        40.0004
 -15548709.043    22071600.635   -12089407.1114   22071598.8884         48.000
        36.5004
 11  3 11  0 21 30.0000000  0  7G 2G 4G 5G 7G10G13G17
 -12880632.680    21483336.880   -10015498.4314   21483332.3544         48.250
        41.0004
 -22919373.477    20298805.232   -17814459.7124   20298802.6124         54.500
        45.7504
  -7234448.836    22928294.900    -5584864.2104   22928293.6314         45.000
        32.7504
  -1061328.547    25002370.961     -816990.9474   25002373.3554         36.750
        19.2504
 -25597307.211    20195384.489   -19874980.2994   20195381.5834         52.000
        45.5004
 -22473511.398    21147629.707   -17454888.7974   21147627.0764         51.250
        40.5004
 -15461460.992    22088203.754   -12021421.6794   22088201.7864         47.000
        36.7504
 11  3 11  0 22  0.0000000  0  7G 2G 4G 5G 7G10G13G17
 -12958145.062    21468586.628   -10075897.6684   21468582.1774         47.750
        41.0004
 -22926867.914    20297378.848   -17820299.5334   20297376.2204         53.500
        45.5004
  -7315491.195    22912873.204    -5648014.0834   22912872.0454         45.000
        34.0004
  -1145112.059    24986426.830     -882276.5914   24986427.9584         32.500
        18.5004
 -25613092.164    20192380.671   -19887280.2414   20192377.5034         51.000
        45.5004
 -22456346.793    21150896.381   -17441513.7734   21150893.0304         51.250
        41.0004
 -15373900.254    22104866.614   -11953192.6024   22104864.2594         48.000
        37.5004
 11  3 11  0 22 30.0000000  0  7G 2G 4G 5G 7G10G13G17
 -13035509.105    21453864.554   -10136181.3304   21453860.2684         47.750
        40.5004
 -22934042.250    20296013.994   -17825889.9314   20296011.3754         53.250
        45.7504
  -7396302.523    22897494.337    -5710983.9124   22897493.8894         46.250
        34.0004
  -1228876.1211   24970487.961     -947547.1395   24970489.3424         35.5001
        20.0005
 -25628495.355    20189449.562   -19899282.7164   20189446.6764         51.000
        45.5004
 -22438564.930    21154279.984   -17427657.7704   21154276.7784         51.250
        40.5004
 -15286029.664    22121587.228   -11884722.0934   22121585.1994         47.500
        37.0004
 11  3 11  0 23  0.0000000  0  7G 2G 4G 5G 7G10G13G17
 -13112721.738    21439171.616   -10196346.9914   21439166.9474         48.750
        40.5004
 -22940894.293    20294709.680   -17831229.1814   20294707.3634         52.500
        45.7504
  -7476881.578    22882161.375    -5773772.7474   22882160.1644         45.000
        34.5004
  -1312616.023    24954551.740    -1012798.8264   24954554.8224         34.500
        20.0004
 -25643516.309    20186591.141   -19910987.3474   20186588.2054         52.000
        45.5004
 -22420165.559    21157781.215   -17413320.6014   21157778.3174         51.000
        40.5004
 -15197850.223    22138367.019   -11816010.9224   22138365.7054         47.000
        37.0004
 11  3 11  0 23 30.0000000  0  7G 2G 4G 5G 7G10G13G17
 -13189781.727    21424507.453   -10256393.7174   21424502.7994         50.000
        41.0004
 -22947423.730    20293467.215   -17836317.0404   20293464.9514         53.000
        46.0004
  -7557228.223    22866871.448    -5836380.4784   22866870.6804         46.000
        34.5004
  -1396328.980    24938622.133    -1078029.4764   24938624.8394         36.500
        21.5004
 -25658156.195    20183805.322   -19922395.0374   20183802.3884         51.750
        45.5004
 -22401149.938    21161399.555   -17398503.2404   21161396.1904         50.750
        40.5004
 -15109364.938    22155205.222   -11747061.4174   22155204.1344         47.250
        36.2504
 11  3 11  0 24  0.0000000  0  7G 2G 4G 5G 7G10G13G17
 -13266691.523    21409872.084   -10316323.4144   21409867.5324         49.000
        41.0004
 -22953634.090    20292285.736   -17841156.3054   20292283.1974         53.500
        46.0004
  -7637346.742    22851626.063    -5898810.4604   22851624.2684         45.250
        33.7504
  -1480016.824    24922697.168    -1143240.5784   24922699.9114         37.000
        25.7504
 -25672420.336    20181090.526   -19933509.9324   20181087.8764         51.750
        45.7504
 -22381523.766    21165134.660   -17383210.1174   21165131.4884         51.000
        41.5004
 -15020580.746    22172100.836   -11677879.0264   22172099.7724         46.250
        36.2504
 11  3 11  0 24 30.0000000  0  7G 2G 4G 5G 7G10G13G17
 -13343445.668    21395266.300   -10376131.8104   21395261.3884         49.500
        41.2504
 -22959520.324    20291165.478   -17845742.9744   20291163.0204         53.000
        45.7504
  -7717232.395    22836424.494    -5961058.9844   22836423.1014         46.250
        34.2504
  -1563671.906    24906777.406    -1208426.2294   24906780.4334         36.750
        22.7504
 -25686305.605    20178448.623   -19944329.5894   20178445.8054         52.500
        45.5004
 -22361283.887    21168986.253   -17367438.7674   21168982.9004         51.750
        40.5004
 -14931496.031    22189052.852   -11608462.4384   22189052.2234         47.250
        36.7504
 11  3 11  0 25  0.0000000  0  7G 2G 4G 5G 7G10G13G17
 -13420042.941    21380690.295   -10435817.9814   21380685.5704         50.500
        41.5004
 -22965081.953    20290107.049   -17850076.7084   20290104.9384         54.500
        45.7504
  -7796885.445    22821266.547    -6023126.2624   22821265.3494         46.000
        34.2504
  -1647291.977    24890865.844    -1273584.5594   24890867.0124         39.500
        24.0004
 -25699813.363    20175878.032   -19954855.1014   20175875.0004         53.500
        45.5004
 -22340431.484    21172954.190   -17351190.1254   21172951.4474         50.500
        40.5004
 -14842113.543    22206061.725   -11538813.8424   22206061.5464         47.000
        37.0004
 11  3 11  0 25 30.0000000  0  7G 2G 4G 5G 7G10G13G17
 -13496481.559    21366144.369   -10495380.5324   21366140.2274         50.000
        42.0004
 -22970318.246    20289110.741   -17854156.9284   20289108.4174         52.500
        45.7504
  -7876305.727    22806153.388    -6085012.1394   22806152.1114         45.750
        34.2504
  -1730873.910    24874959.668    -1338713.1924   24874960.8524         38.250
        22.0004
 -25712944.297    20173379.350   -19965086.9944   20173376.2344         52.750
        45.5004
 -22318967.996    21177038.372   -17334465.3134   21177035.6904         50.500
        40.5004
 -14752435.816    22223127.466   -11468935.1814   22223126.4884         47.000
        36.7504
 11  3 11  0 26  0.0000000  0  7G 2G 4G 5G 7G10G13G17
 -13572760.184    21351629.279   -10554818.4024   21351624.2884         50.500
        42.0004
 -22975228.980    20288176.377   -17857983.4674   20288173.7524         53.500
        45.7504
  -7955493.625    22791084.829    -6146716.9704   22791083.4094         45.000
        34.5004
  -1814415.207    24859062.996    -1403810.1424   24859062.4414         35.250
        20.5004
 -25725699.977    20170952.031   -19975026.4694   20170948.9074         52.500
        45.5004
 -22296895.336    21181238.323   -17317265.8154   21181235.6184         50.000
        40.5004
 -14662466.105    22240247.511   -11398828.9854   22240246.8984         46.000
        36.0004
 11  3 11  0 26 30.0000000  0  7G 2G 4G 5G 7G10G13G17
 -13648878.195    21337144.265   -10614131.1184   21337139.8704         50.750
        42.0004
 -22979814.121    20287303.729   -17861556.3234   20287300.9734         53.000
        45.5004
  -8034449.773    22776059.351    -6208241.2094   22776058.1774         45.750
        34.7504
  -1897913.879    24843172.788    -1468874.0154   24843172.5794         36.250
        19.5004
 -25738082.414    20168595.558   -19984675.0984   20168592.5784         52.000
        46.0004
 -22274215.363    21185554.609   -17299593.0974   21185552.0494         50.250
        40.2504
 -14572208.020    22257423.558   -11328498.1014   22257422.5214         45.750
        35.7504
 11  3 11  0 27  0.0000000  0  7G 2G 4G 5G 7G10G13G17
 -13724834.035    21322690.484   -10673317.4674   21322685.7314         50.000
        42.0004
 -22984072.859    20286493.399   -17864874.8184   20286490.9444         53.250
        45.5004
  -8113173.996    22761078.613    -6269584.7444   22761077.9964         46.000
        35.0004
  -1981366.703    24827293.157    -1533902.0644   24827292.7864         36.250
        21.7504
 -25750092.469    20166310.256   -19994033.5714   20166307.2814         52.250
        45.5004
 -22250929.387    21189986.041   -17281448.1764   21189982.7424         51.000
        40.0004
 -14481663.801    22274653.105   -11257944.2564   22274652.4694         45.000
        36.0004
 11  3 11  0 27 30.0000000  0  7G 2G 4G 5G 7G10G13G17
 -13800626.141    21308267.918   -10732376.2314   21308263.1124         50.750
        41.7504
 -22988004.570    20285744.985   -17867938.4484   20285742.8434         52.750
        45.5004
  -8191666.270    22746142.483    -6330747.5134   22746140.9984         46.000
        35.5004
  -2064771.168    24811421.472    -1598892.4514   24811421.9624         36.750
        21.0004
 -25761731.445    20164095.313   -20003102.9114   20164092.5094         52.500
        46.0004
 -22227038.812    21194531.758   -17262832.1374   21194529.4634         50.000
        40.5004
 -14390836.484    22291937.272   -11187169.8054   22291936.7924         45.000
        35.7504
 11  3 11  0 28  0.0000000  0  7G 2G 4G 5G 7G10G13G17
 -13876252.820    21293876.138   -10791306.0894   21293871.7774         51.000
        41.7504
 -22991608.520    20285059.217   -17870746.7154   20285057.2394         52.250
        45.5004
  -8269925.844    22731249.801    -6391728.9594   22731248.8014         47.000
        36.5004
  -2148123.781    24795559.710    -1663842.4534   24795559.3144         37.250
        21.0004
 -25773000.109    20161951.434   -20011883.6794   20161948.3384         52.000
        45.5004
 -22202544.902    21199192.824   -17243745.9714   21199190.2444         48.500
        40.7504
 -14299728.566    22309274.414   -11116176.7024   22309274.0774         45.000
        36.0004
 11  3 11  0 28 30.0000000  0  7G 2G 4G 5G 7G10G13G17
 -13951712.758    21279516.923   -10850106.0304   21279512.1944         50.500
        42.2504
 -22994884.707    20284435.691   -17873299.6024   20284433.3434         51.750
        45.5004
  -8347953.941    22716401.846    -6452530.0454   22716400.3334         46.750
        35.2504
  -2231422.953    24779708.954    -1728750.7634   24779709.0904         39.250
        22.2504
 -25783900.168    20159876.957   -20020377.2364   20159874.1454         52.250
        45.7504
 -22177449.793    21203968.337   -17224191.3384   21203965.7774         48.250
        40.7504
 -14208343.281    22326665.134   -11044967.4744   22326664.4064         47.000
        36.0004
 11  3 11  0 29  0.0000000  0  7G 2G 4G 5G 7G10G13G17
 -14027003.215    21265189.702   -10908773.9054   21265184.2174         50.500
        41.7504
 -22997831.355    20283875.026   -17875595.6844   20283872.7134         50.250
        45.7504
  -8425749.348    22701597.632    -6513149.8104   22701596.5834         47.750
        35.5004
  -2314663.852    24763868.670    -1793613.7034   24763869.4834         39.500
        23.7504
 -25794431.863    20157872.984   -20028583.7614   20157870.1274         52.250
        45.7504
 -22151754.172    21208858.271   -17204168.7804   21208855.0294         48.000
        40.2504
 -14116682.754    22344107.347   -10973543.8024   22344106.5194         46.500
        35.2504
 11  3 11  0 29 30.0000000  0  7G 2G 4G 5G 7G10G13G17
 -14102124.422    21250894.124   -10967309.8944   21250889.8324         49.250
        41.5004
 -23000448.887    20283377.130   -17877635.3124   20283374.6694         51.000
        45.7504
  -8503313.105    22686837.927    -6573589.0434   22686836.7294         44.250
        35.7504
  -2397845.312    24748039.151    -1858430.3504   24748040.8204         38.750
        22.2504
 -25804597.344    20155938.265   -20036504.9154   20155935.6254         53.000
        45.5004
 -22125460.336    21213861.182   -17183680.0604   21213858.5694         47.500
        40.2504
 -14024750.301    22361601.172   -10901908.2174   22361600.6954         46.000
        34.5004
 11  3 11  0 30  0.0000000  0  7G 2G 4G 5G 7G10G13G17
 -14177074.113    21236631.706   -11025712.2374   21236627.1334         51.250
        41.5004
 -23002736.531    20282941.628   -17879417.9174   20282939.2044         51.500
        45.7504
  -8580644.703    22672121.812    -6633847.3724   22672120.5194         48.250
        35.2504
  -2480964.184    24732221.607    -1923198.1414   24732223.4404         37.000
        22.2504
 -25814397.504    20154073.418   -20044141.4034   20154070.7664         53.500
        46.0004
 -22098569.312    21218978.700   -17162726.0064   21218976.1554         48.250
        40.0004
 -13932548.371    22379146.805   -10830062.6454   22379145.6424         45.750
        34.2504
 11  3 11  0 30 30.0000000  0  7G 2G 4G 5G 7G10G13G17
 -14251850.672    21222402.273   -11083979.6814   21222397.7224         51.250
        42.0004
 -23004693.426    20282569.009   -17880942.7504   20282566.5584         52.500
        45.5004
  -8657743.977    22657450.251    -6693924.6914   22657448.8414         45.500
        34.5004
  -2564017.250    24716417.624    -1987914.7894   24716419.3534         34.500
        22.0004
 -25823832.996    20152277.973   -20051493.7424   20152275.2324         53.500
        46.0004
 -22071082.801    21224209.596   -17141307.9484   21224205.9164         50.000
        40.5004
 -13840079.695    22396743.616   -10758009.2144   22396742.2124         45.500
        34.7504
 11  3 11  0 31  0.0000000  0  7G 2G 4G 5G 7G10G13G17
 -14326452.164    21208205.980   -11142110.7034   21208201.4324         50.750
        42.0004
 -23006318.840    20282259.786   -17882209.3054   20282257.4544         53.500
        45.5004
  -8734610.852    22642822.568    -6753820.9074   22642821.4434         46.000
        35.0004
  -2647001.215    24700625.315    -2052577.4334   24700627.5864         37.000
        20.5004
 -25832905.070    20150551.610   -20058562.9154   20150548.8374         52.500
        46.0004
 -22043001.867    21229553.301   -17119426.7024   21229549.5844         50.000
        40.5004
 -13747346.785    22414390.107   -10685749.8834   22414389.2164         45.250
        35.0004
 11  3 11  0 31 30.0000000  0  7G 2G 4G 5G 7G10G13G17
 -14400877.484    21194043.606   -11200104.4554   21194038.7414         51.500
        42.5004
 -23007612.441    20282013.633   -17883217.3164   20282011.2824         53.000
        45.5004
  -8811245.734    22628239.786    -6813536.3684   22628238.2774         46.250
        34.0004
  -2729913.656    24684847.509    -2117184.5084   24684850.2444         36.500
        20.0004
 -25841615.414    20148894.202   -20065350.2204   20148891.4394         53.250
        46.0004
 -22014329.289    21235009.245   -17097084.4364   21235006.2464         50.000
        40.5004
 -13654353.020    22432086.127   -10613287.3054   22432085.4294         43.750
        35.2504
 11  3 11  0 32  0.0000000  0  7G 2G 4G 5G 7G10G13G17
 -14475125.520    21179914.513   -11257960.0604   21179909.9394         51.750
        42.2504
 -23008574.000    20281830.803   -17883966.6214   20281828.3084         52.250
        45.5004
  -8887648.965    22613700.350    -6873071.3064   22613699.1614         46.000
        35.0004
  -2812752.496    24669084.732    -2181734.1164   24669086.3394         39.500
        22.2504
 -25849965.707    20147304.842   -20071856.9554   20147302.2054         53.250
        45.7504
 -21985066.734    21240577.558   -17074282.4574   21240574.8774         48.500
        39.2504
 -13561101.746    22449831.634   -10540624.0864   22449831.1984         44.000
        35.0004
 11  3 11  0 32 30.0000000  0  7G 2G 4G 5G 7G10G13G17
 -14549195.887    21165819.222   -11315677.2324   21165814.9364         51.500
        42.0004
 -23009204.246    20281711.113   -17884457.7554   20281708.9594         51.750
        45.7504
  -8963821.668    22599205.611    -6932426.6514   22599204.1034         46.000
        34.7504
  -2895515.625    24653335.498    -2246224.9114   24653337.2304         39.500
        23.0004
 -25857958.000    20145784.053   -20078084.7344   20145781.6374         52.500
        45.7504
 -21955217.094    21246257.901   -17051022.9994   21246254.9944         49.250
        39.7504
 -13467596.824    22467624.494   -10467763.1974   22467624.3284         43.000
        34.7504
 11  3 11  0 33  0.0000000  0  7G 2G 4G 5G 7G10G13G17
 -14623086.688    21151758.408   -11373254.4714   21151754.0154         49.000
        42.0004
 -23009502.449    20281654.271   -17884690.1224   20281652.0144         51.000
        46.0004
  -9039763.930    22584754.328    -6991602.3954   22584752.8124         43.000
        35.2504
  -2978199.922    24637600.779    -2310654.0904   24637603.0344         38.500
        22.0004
 -25865593.520    20144331.140   -20084034.4904   20144328.5174         53.500
        45.5004
 -21924781.570    21252049.486   -17027307.0034   21252046.1624         47.250
        39.2504
 -13373840.699    22485466.440   -10394706.5624   22485465.4544         43.500
        35.0004
 11  3 11  0 33 30.0000000  0  7G 2G 4G 5G 7G10G13G17
 -14696794.762    21137732.153   -11430689.3474   21137727.8654         49.250
        42.0004
 -23009466.367    20281660.752   -17884662.0174   20281658.4964         50.000
        45.5004
  -9115474.348    22570347.313    -7050597.4734   22570345.8304         44.250
        36.0004
  -3060801.629    24621881.642    -2375018.9214   24621884.6654         37.500
        22.2504
 -25872872.105    20142946.110   -20089706.1244   20142943.8214         53.500
        45.7504
 -21893760.781    21257952.365   -17003134.9524   21257949.2734         46.750
        39.7504
 -13279834.945    22503354.283   -10321455.4064   22503354.5544         43.250
        34.5004
 11  3 11  0 34  0.0000000  0  7G 2G 4G 5G 7G10G13G17
 -14770318.168    21123741.410   -11487980.2994   21123736.7034         51.000
        42.2504
 -23009095.129    20281731.750   -17884372.7374   20281729.5114         51.500
        45.7504
  -9190952.359    22555984.425    -7109411.4684   22555982.8424         47.500
        36.5004
  -3143316.995    24606178.685    -2439316.5434   24606182.7114         38.250
        23.0004
 -25879794.332    20141628.712   -20095100.0794   20141626.4124         52.000
        45.7504
 -21862155.762    21263966.922   -16978507.6754   21263964.2584         48.250
        39.7504
 -13185581.668    22521290.992   -10248011.3934   22521289.6894         44.000
        34.0004
 11  3 11  0 34 30.0000000  0  7G 2G 4G 5G 7G10G13G17
 -14843655.637    21109785.591   -11545126.3744   21109781.2274         51.250
        42.0004
 -23008388.492    20281866.006   -17883822.1164   20281864.1754         50.500
        45.5004
  -9266198.426    22541665.084    -7168044.7024   22541663.7244         47.500
        37.2504
  -3225743.633    24590494.640    -2503544.8784   24590496.3374         40.000
        24.7504
 -25886361.828    20140379.223   -20100217.6224   20140376.6754         52.250
        45.7504
 -21829968.867    21270091.595   -16953426.9864   21270089.3884         46.750
        40.0004
 -13091084.340    22539273.286   -10174377.2264   22539272.8914         43.000
        33.7504
 11  3 11  0 35  0.0000000  0  7G 2G 4G 5G 7G10G13G17
 -14916805.082    21095865.819   -11602125.9454   21095861.3604         50.250
        42.7504
 -23007345.539    20282064.683   -17883009.4264   20282062.2194         51.500
        45.7504
  -9341212.227    22527390.133    -7226496.9774   22527388.8284         47.250
        37.0004
  -3308078.090    24574826.622    -2567701.4264   24574828.4144         41.250
        24.5004
 -25892575.523    20139196.928   -20105059.4654   20139194.2574         52.500
        45.7504
 -21797201.449    21276326.931   -16927893.9374   21276324.7974         47.250
        39.5004
 -12996345.484    22557301.947   -10100554.8324   22557300.7904         42.500
        34.2504
 11  3 11  0 35 30.0000000  0  7G 2G 4G 5G 7G10G13G17
 -14989766.543    21081981.475   -11658979.0234   21081977.2354         51.500
        42.5004
 -23005967.035    20282326.938   -17881935.2694   20282324.7144         53.000
        45.5004
  -9415995.277    22513159.586    -7284769.4244   22513158.3294         47.750
        37.0004
  -3390319.250    24559177.074    -2631785.3244   24559177.6894         41.750
        24.2504
 -25898438.059    20138081.199   -20109627.6744   20138078.4564         53.000
        45.5004
 -21763856.742    21282672.213   -16901911.0414   21282669.8294         46.750
        39.5004
 -12901369.242    22575374.913   -10026547.4814   22575374.6224         42.000
        34.2504
 11  3 11  0 36  0.0000000  0  7G 2G 4G 5G 7G10G13G17
 -15062536.559    21068133.869   -11715682.9374   21068129.4774         51.000
        42.5004
 -23004250.906    20282653.499   -17880598.0474   20282651.3694         52.000
        45.5004
  -9490546.156    22498972.788    -7342860.9854   22498971.9184         45.750
        36.0004
  -3472462.457    24543544.948    -2695792.9324   24543545.1164         42.000
        21.7504
 -25903948.938    20137032.518   -20113921.8814   20137029.8914         53.250
        45.7504
 -21729934.949    21289127.837   -16875478.4944   21289124.9964         48.750
        39.5004
 -12806156.789    22593493.372    -9952356.0474   22593492.6474         41.750
        34.0004
 11  3 11  0 36 30.0000000  0  7G 2G 4G 5G 7G10G13G17
 -15135115.250    21054322.855   -11772237.7674   21054317.9484         50.500
        42.5004
 -23002198.234    20283044.156   -17878998.5574   20283041.6954         52.500
        45.5004
  -9564866.586    22484830.565    -7400772.9524   22484828.6684         45.000
        36.0004
  -3554506.363    24527932.760    -2759723.2044   24527932.5574         42.250
        22.5004
 -25909111.328    20136049.944   -20117944.5254   20136047.4314         53.000
        45.5004
 -21695439.527    21295691.912   -16848598.9314   21295689.0184         49.500
        39.0004
 -12710712.711    22611655.445    -9877984.1324   22611654.3664         42.250
        33.5004
 11  3 11  0 37  0.0000000  0  7G 2G 4G 5G 7G10G13G17
 -15207500.691    21040548.395   -11828642.0014   21040543.3664         50.250
        42.7504
 -22999808.238    20283498.881   -17877136.2614   20283496.6684         50.500
        45.5004
  -9638955.922    22470731.356    -7458504.8584   22470730.2394         43.250
        36.0004
  -3636447.969    24512339.728    -2823573.6504   24512340.4194         39.500
        22.5004
 -25913925.875    20135133.850   -20121696.0994   20135131.1454         52.750
        45.5004
 -21660372.031    21302364.794   -16821273.6264   21302362.0184         47.000
        39.2504
 -12615039.375    22629861.320    -9803433.5714   22629860.5714         41.250
        32.2504
 11  3 11  0 37 30.0000000  0  7G 2G 4G 5G 7G10G13G17
 -15279690.367    21026811.050   -11884893.7054   21026806.1274         50.250
        43.0004
 -22997079.727    20284018.240   -17875010.1314   20284015.8674         50.500
        45.5004
  -9712813.832    22456677.015    -7516056.4434   22456675.4654         46.000
        36.0004
  -3718283.531    24496766.671    -2887341.5914   24496767.8224         38.500
        24.0004
 -25918393.117    20134283.830   -20125177.0774   20134281.2674         54.250
        45.5004
 -21624733.836    21309146.422   -16793503.6104   21309143.6214         46.500
        39.5004
 -12519139.125    22648111.004    -9728706.2234   22648109.4124         44.000
        33.0004
 11  3 11  0 38  0.0000000  0  7G 2G 4G 5G 7G10G13G17
 -15351682.914    21013111.343   -11940991.8104   21013106.6184         52.250
        43.0004
 -22994012.273    20284601.605   -17872619.9214   20284599.7124         49.000
        45.5004
  -9786440.855    22442665.867    -7573428.1054   22442664.0754         48.000
        35.7504
  -3800010.449    24481214.381    -2951024.7734   24481215.4854         37.250
        22.2504
 -25922514.691    20133499.576   -20128388.6924   20133496.5394         52.750
        45.5004
 -21588527.078    21316036.758   -16765290.5564   21316033.3424         47.500
        39.0004
 -12423014.781    22666403.235    -9653804.2684   22666401.2714         43.000
        32.7504
 11  3 11  0 38 30.0000000  0  7G 2G 4G 5G 7G10G13G17
 -15423477.559    20999449.201   -11996935.6974   20999444.6694         51.250
        43.0004
 -22990606.309    20285250.110   -17869965.9544   20285247.6484         50.500
        45.5004
  -9859837.789    22428699.064    -7630620.4824   22428697.0504         48.000
        35.7504
  -3881626.527    24465682.594    -3014621.6224   24465684.1524         36.000
        22.5004
 -25926292.547    20132780.532   -20131332.4794   20132777.7314         52.750
        45.5004
 -21551754.387    21323034.312   -16736636.5254   21323031.1534         48.250
        38.5004
 -12326670.152    22684737.073    -9578730.6464   22684735.6464         44.250
        33.7504
 11  3 11  0 39  0.0000000  0  7G 2G 4G 5G 7G10G13G17
 -15495071.754    20985825.246   -12052723.3814   20985820.5784         48.500
        42.5004
 -22986860.379    20285962.605   -17867047.0714   20285960.4914         52.000
        45.5004
  -9933003.594    22414776.171    -7687632.7574   22414775.2494         42.750
        36.2504
  -3963128.195    24450173.800    -3078129.2344   24450175.1404         34.500
        24.7504
 -25929727.289    20132126.997   -20134008.9134   20132124.2784         52.250
        45.5004
 -21514416.879    21330139.245   -16707542.3634   21330136.8604         48.750
        39.0004
 -12230107.391    22703111.543    -9503487.0634   22703111.0194         41.750
        32.2504
 11  3 11  0 39 30.0000000  0  7G 2G 4G 5G 7G10G13G17
 -15566463.664    20972239.886   -12108353.4504   20972235.1824         50.750
        43.5004
 -22982773.930    20286740.374   -17863862.8354   20286737.8014         51.750
        45.5004
 -10005938.727    22400896.996    -7744465.2834   22400895.4924         47.750
        36.7504
  -4044512.457    24434687.142    -3141545.4654   24434688.2234         36.750
        25.5004
 -25932820.387    20131538.466   -20136419.1364   20131535.6674         53.250
        45.5004
 -21476516.719    21337351.463   -16678009.7884   21337348.3544         49.000
        38.5004
 -12133329.168    22721528.385    -9428075.5724   22721527.1604         42.250
        32.0004
 11  3 11  0 40  0.0000000  0  7G 2G 4G 5G 7G10G13G17
 -15637652.473    20958693.255   -12163825.2564   20958688.6364         52.500
        42.7504
 -22978347.289    20287582.751   -17860413.5034   20287580.2954         51.000
        45.5004
 -10078643.977    22387061.544    -7801118.6754   22387060.1354         48.500
        37.0004
  -4125777.160    24419222.718    -3204868.5704   24419222.0434         37.500
        22.5004
 -25935573.699    20131014.476   -20138564.5794   20131011.5004         53.500
        45.5004
 -21438056.469    21344670.364   -16648040.7774   21344667.5774         50.000
        39.2504
 -12036339.184    22739984.793    -9352499.0434   22739983.8784         43.250
        32.2504
 11  3 11  0 40 30.0000000  0  7G 2G 4G 5G 7G10G13G17
 -15708635.996    20945185.583   -12219137.1044   20945181.0154         51.500
        42.7504
 -22973578.957    20288490.279   -17856697.9004   20288488.0354         50.000
        45.5004
 -10151118.750    22373269.853    -7857592.4834   22373269.0054         48.500
