     2.11           OBSERVATION DATA    G (GPS)             RINEX VERSION / TYPE
TEQC  2010OCT21                         20110410 01:01:09UTCPGM / RUN BY / DATE
LINUX 2.4.20-8|PENTIUM IV|GCC -STATIC|LINUX|486/DX+         COMMENT
TEQC  2010OCT21                         20110410 00:15:24UTCCOMMENT
TEQC  2010OCT21                         20110410 00:15:19UTCCOMMENT
BIT 2 OF LLI FLAGS DATA COLLECTED UNDER A/S CONDITION       COMMENT
BIS2                                                        MARKER NAME
BIS2                                                        MARKER NUMBER
GFZ                 GFZ                                     OBSERVER / AGENCY
2177                SEPT POLARX2        2.6.0               REC # / TYPE / VERS
12128               ASH700936C_M    NONE                    ANT # / TYPE
  1249005.5455  4513917.3464  4316147.9247                  APPROX POSITION XYZ
        0.0460        0.0000        0.0000                  ANTENNA: DELTA H/E/N
     1     1                                                WAVELENGTH FACT L1/2
 SNR IS MAPPED TO RINEX SNR FLAG VALUE [0-9]                COMMENT
  L1 & L2: MIN(MAX(INT(SNR_DBHZ/6), 0), 9)                  COMMENT
     7    L1    L2    C1    P1    P2    S1    S2            # / TYPES OF OBSERV
    30.000                                                  INTERVAL
  2011    04    10    00    00   00.000                     TIME OF FIRST OBS
  2011    04    10    23    59   30.000                     TIME OF LAST OBS
                                                            END OF HEADER
 11 04 10 00 00  0.0000000  0 10G05G21G15G10G26G30G25G29G02G12        .000000000
 -36699389.58748 -28560056.94046  23132382.99900  23132382.52000  23132381.46500
        51.00000        40.00000
 -18270808.80547 -14053197.45144  25832975.40200  25832974.04400  25832973.99500
        43.00000        24.00000
  -1964277.68646  -1421365.65042  27153009.44000  27153010.14300  27153009.77200
        38.00000        14.00000
 -23393685.03746 -18043007.78142  26556451.22600  26556449.90800  26556451.46100
        39.00000        14.00000
 -11976524.05146  -8474414.25042  25900995.93700  25900995.31200  25900996.00500
        40.00000        16.00000
  -9067569.05646  -6252700.25742  26389797.15600  26389796.82400  26389796.04200
        40.00000        14.00000
 -32646168.12148 -25339255.28245  24435306.75100  24435305.55900  24435308.20700
        49.00000        34.00000
 -40604981.05648 -31585325.77147  22649819.06500  22649818.27400  22649817.78500
        52.00000        44.00000
 -37173653.76947 -28874360.54044  25040956.18800  25040955.63100  25040953.42400
        45.00000        26.00000
 -32226453.42446 -24838880.16943  26409109.95400  26409109.40700  26409109.70000
        39.00000        20.00000
 11 04 10 00 00 30.0000000  0 10G05G21G15G10G26G30G25G29G02G12        .000000000
 -36691966.05448 -28554272.38746  23133795.88200  23133795.19800  23133794.21100
        51.00000        40.00000
 -18379398.88647 -14137813.05344  25812311.41800  25812310.28500  25812309.65000
        44.00000        24.00000
  -2102874.20646  -1529362.97042  27126636.46600  27126635.69400  27126635.51800
        39.00000        14.00000
 -23320208.44646 -17985753.41342  26570433.67700  26570432.28100  26570433.40400
        39.00000        14.00000
 -12113783.28046  -8581369.50143  25874876.68700  25874876.26700  25874876.78500
        40.00000        18.00000
  -9176473.10146  -6337560.56042  26369074.21900  26369073.10600  26369071.98200
        40.00000        14.00000
 -32608190.23448 -25309662.13745  24442534.02500  24442532.72600  24442535.12900
        49.00000        34.00000
 -40669052.06848 -31635251.24547  22637626.99700  22637625.98100  22637625.54100
        52.00000        44.00000
 -37132426.03747 -28842235.09044  25048802.14500  25048801.19700  25048798.81300
        45.00000        26.00000
 -32153147.79346 -24781758.91943  26423059.67100  26423058.74300  26423059.45600
        39.00000        18.00000
 11 04 10 00 01  0.0000000  0 10G05G21G15G10G26G30G25G29G02G12        .000000000
 -36684048.50348 -28548102.88146  23135302.42400  23135302.10200  23135300.78300
        51.00000        40.00000
 -18487901.82647 -14222360.77644  25791663.86400  25791663.21000  25791662.00800
        44.00000        24.00000
  -2241531.37246  -1637407.53942  27100250.22600  27100249.92400  27100249.19100
        39.00000        14.00000
 -23246595.41946 -17928392.76442  26584441.65300  26584440.13900  26584441.53600
        38.00000        12.00000
 -12250826.22246  -8688156.22843  25848798.66100  25848797.71300  25848798.26000
        41.00000        18.00000
  -9284904.55946  -6422052.61542  26348440.85000  26348439.34500  26348438.21200
        41.00000        14.00000
 -32569810.26648 -25279755.67745  24449837.98200  24449836.79000  24449838.80200
        49.00000        34.00000
 -40732703.21748 -31684849.54547  22625514.57100  22625513.91600  22625513.10500
        52.00000        44.00000
 -37091066.08847 -28810006.62544  25056673.48900  25056672.16100  25056669.45500
        46.00000        26.00000
 -32079798.08146 -24724603.33443  26437017.90600  26437016.85100  26437017.04700
        40.00000        20.00000
 11 04 10 00 01 30.0000000  0 10G05G21G15G10G26G30G25G29G02G12        .000000000
 -36675638.69448 -28541549.79846  23136903.51500  23136902.47000  23136901.24900
        51.00000        40.00000
 -18596317.68447 -14306840.63544  25771032.83900  25771032.29200  25771030.73900
        44.00000        24.00000
  -2380246.46546  -1745497.25142  27073853.82800  27073853.44700  27073853.25100
        39.00000        14.00000
 -23172848.48246 -17870927.75642  26598475.59400  26598473.55200  26598474.83200
        39.00000        12.00000
 -12387649.25147  -8794771.58743  25822762.50100  25822760.95800  25822761.92500
        42.00000        18.00000
  -9392860.68746  -6506174.29042  26327895.71800  26327896.12800  26327895.15100
        40.00000        14.00000
 -32531031.01748 -25249538.09445  24457217.10600  24457216.02100  24457218.12200
        49.00000        34.00000
 -40795932.88548 -31734119.41647  22613482.39200  22613481.77700  22613480.77100
        52.00000        44.00000
 -37049574.15947 -28777675.31044  25064568.21900  25064567.69200  25064565.56200
        45.00000        28.00000
 -32006407.21746 -24667415.66043  26450983.57500  26450983.07700  26450982.78400
        40.00000        20.00000
 11 04 10 00 02  0.0000000  0 10G05G21G15G10G26G30G25G29G02G12        .000000000
 -36666738.41448 -28534614.52646  23138596.79100  23138596.15600  23138594.93500
        51.00000        40.00000
 -18704645.97947 -14391252.26244  25750418.87900  25750418.03900  25750416.23200
        44.00000        24.00000
  -2519016.40346  -1853629.69342  27047447.07400  27047446.08800  27047446.13700
        39.00000        16.00000
 -23098969.90146 -17813360.12642  26612533.82800  26612531.80600  26612532.99800
        38.00000        12.00000
 -12524248.14246  -8901212.31143  25796768.42400  25796767.39900  25796768.56100
        41.00000        18.00000
  -9500338.88946  -6589923.56042  26307443.42500  26307443.43500  26307442.54600
        40.00000        14.00000
 -32491854.89748 -25219011.26645  24464671.72000  24464670.57700  24464673.09800
        48.00000        34.00000
 -40858739.59848 -31783059.71247  22601530.96900  22601530.17800  22601529.08400
        52.00000        44.00000
 -37007950.77947 -28745241.58844  25072488.80600  25072487.73200  25072486.34500
        45.00000        26.00000
 -31932977.69046 -24610197.86743  26464956.89300  26464956.30700  26464955.81800
        40.00000        18.00000
 11 04 10 00 02 30.0000000  0 10G05G21G15G10G26G30G25G29G02G12        .000000000
 -36657349.07648 -28527298.17346  23140383.55000  23140382.74900  23140381.67400
        51.00000        40.00000
 -18812886.49547 -14475595.48044  25729821.34000  25729819.90400  25729818.99500
        44.00000        24.00000
  -2657837.99346  -1961802.39742  27021029.71300  27021029.35100  27021029.80100
        38.00000        16.00000
 -23024961.61346 -17755691.47942  26626616.96200  26626614.40300  26626617.23600
        38.00000        12.00000
 -12660618.76247  -9007475.12743  25770818.35400  25770816.79100  25770818.10000
        42.00000        18.00000
  -9607336.53146  -6673298.36742  26287081.77300  26287081.74400  26287081.06000
        38.00000        16.00000
 -32452284.33648 -25188177.07645  24472201.63900  24472200.63300  24472203.35900
        48.00000        34.00000
 -40921121.50548 -31831668.99447  22589659.57800  22589659.14900  22589658.16200
        52.00000        44.00000
 -36966196.09747 -28712705.53944  25080434.21500  25080433.21800  25080431.87000
        44.00000        26.00000
 -31859511.81046 -24552951.74243  26478937.14600  26478936.41400  26478935.56400
        39.00000        18.00000
 11 04 10 00 03  0.0000000  0 10G05G21G15G10G26G30G25G29G02G12        .000000000
 -36647471.20748 -28519601.15646  23142263.37300  23142262.78600  23142261.72200
        51.00000        40.00000
 -18921037.43947 -14559868.90744  25709240.80700  25709239.49800  25709238.09200
        44.00000        24.00000
  -2796706.64646  -2070011.73142  26994603.45200  26994603.07100  26994603.50100
        38.00000        16.00000
 -22950825.04646 -17697922.86542  26640725.66000  26640722.86700  26640725.65100
        39.00000        14.00000
 -12796755.65847  -9113555.86043  25744911.95800  25744911.09900  25744912.53400
        42.00000        20.00000
  -9713849.52346  -6756295.50342  26266813.70300  26266812.34500  26266812.14000
        39.00000        14.00000
 -32412320.55548 -25157036.48845  24479806.69700  24479805.91600  24479808.14300
        48.00000        34.00000
 -40983075.52548 -31879944.85547  22577870.34000  22577869.64700  22577868.73800
        52.00000        44.00000
 -36924309.35147 -28680066.58344  25088405.22600  25088403.96600  25088402.45200
        44.00000        24.00000
 -31786010.59446 -24495678.09743  26492923.60200  26492923.02600  26492922.56700
        39.00000        18.00000
 11 04 10 00 03 30.0000000  0 10G05G21G15G10G26G30G25G29G02G12        .000000000
 -36637110.91448 -28511528.21046  23144235.35100  23144234.21700  23144233.24100
        52.00000        40.00000
 -19029102.48247 -14644075.41144  25688677.20300  25688675.66000  25688673.81400
        44.00000        24.00000
  -2935623.92546  -2178258.98042  26968168.92700  26968167.97000  26968167.97000
        38.00000        14.00000
 -22876566.45046 -17640059.12042  26654855.82000  26654854.17900  26654856.77700
        38.00000        12.00000
 -12932659.30046  -9219454.80443  25719050.08700  25719049.40300  25719050.95600
        41.00000        18.00000
  -9819879.75446  -6838916.48442  26246636.66400  26246635.06200  26246635.54100
        39.00000        14.00000
 -32371970.41548 -25125594.83545  24487485.07600  24487484.25600  24487486.56100
        48.00000        34.00000
 -41044604.03648 -31927889.15147  22566161.86700  22566161.22200  22566160.28500
        52.00000        44.00000
 -36882295.05347 -28647328.23344  25096400.64900  25096399.59400  25096397.31800
        44.00000        26.00000
 -31712481.23946 -24438382.52243  26506916.31000  26506915.34300  26506915.06000
        40.00000        20.00000
 11 04 10 00 04  0.0000000  0 10G05G21G15G10G26G30G25G29G02G12        .000000000
 -36626268.01748 -28503079.21946  23146298.46800  23146297.40300  23146296.51400
        51.00000        40.00000
 -19137079.50947 -14728213.32044  25668129.63000  25668127.70500  25668126.59200
        44.00000        24.00000
  -3074584.91546  -2286540.30142  26941725.67000  26941724.88800  26941724.49700
        38.00000        16.00000
 -22802186.16046 -17582100.61642  26669008.80800  26669008.13400  26669010.86900
        37.00000        14.00000
 -13068323.89247  -9325167.50143  25693233.83400  25693233.17000  25693235.08400
        42.00000        18.00000
  -9925422.73246  -6921157.77742  26226551.87900  26226550.64800  26226551.35100
        38.00000        14.00000
 -32331234.78648 -25093852.80145  24495237.06100  24495235.71300  24495238.41900
        49.00000        34.00000
 -41105703.50548 -31975499.13047  22554534.98000  22554534.29600  22554533.44600
        52.00000        44.00000
 -36840151.77347 -28614489.38844  25104419.98500  25104419.13500  25104416.77100
        44.00000        26.00000
 -31638924.35946 -24381065.48643  26520914.00000  26520912.77900  26520912.73000
        40.00000        20.00000
 11 04 10 00 04 30.0000000  0 10G05G21G15G10G26G30G25G29G02G12        .000000000
 -36614941.57248 -28494253.43646  23148453.95500  23148452.85100  23148451.97200
        51.00000        40.00000
 -19244965.53747 -14812280.31544  25647598.76000  25647597.89000  25647596.88400
        44.00000        24.00000
  -3213583.91846  -2394851.22742  26915275.04600  26915274.65600  26915274.52900
        38.00000        16.00000
 -22727683.95946 -17524047.08342  26683187.50600  26683185.45500  26683188.17000
        38.00000        12.00000
 -13203742.70147  -9430688.66643  25667464.82100  25667463.41400  25667465.57300
        42.00000        20.00000
 -10030473.27846  -7003015.37042  26206560.87900  26206560.61600  26206559.82400
        38.00000        14.00000
 -32290113.51348 -25061810.26645  24503062.32800  24503060.99900  24503063.22600
        49.00000        34.00000
 -41166369.61348 -32022771.42647  22542990.88000  22542989.95200  22542989.06300
        52.00000        44.00000
 -36797877.01547 -28581548.11144  25112465.24600  25112463.71300  25112462.42300
        45.00000        26.00000
 -31565339.69746 -24323726.80843  26534916.98500  26534915.62700  26534915.35300
        41.00000        20.00000
 11 04 10 00 05  0.0000000  0 10G05G21G15G10G26G30G25G29G02G12        .000000000
 -36603135.78548 -28485054.13746  23150700.06400  23150699.37000  23150698.47200
        51.00000        40.00000
 -19352762.07047 -14896277.57444  25627086.80100  25627085.20900  25627084.04700
        45.00000        24.00000
  -3352620.01846  -2503191.05142  26888817.60500  26888816.79400  26888816.63800
        38.00000        16.00000
 -22653064.33746 -17465902.04542  26697386.10300  26697385.10600  26697388.23200
        36.00000        14.00000
 -13338914.05946  -9536017.02143  25641741.68100  25641741.30900  25641743.43900
        41.00000        20.00000
 -10135031.15046  -7084489.03642  26186664.97600  26186663.59800  26186663.37400
        38.00000        14.00000
 -32248611.44048 -25029471.00045  24510959.79300  24510958.55200  24510961.51200
        48.00000        34.00000
 -41226602.91248 -32069706.47147  22531528.65800  22531527.90600  22531527.00700
        52.00000        44.00000
 -36755473.48347 -28548506.47444  25120534.19600  25120533.25800  25120531.03100
        44.00000        24.00000
 -31491731.83746 -24266370.05243  26548923.68100  26548922.69400  26548922.56700
        41.00000        18.00000
 11 04 10 00 05 30.0000000  0 10G05G21G15G10G26G30G25G29G02G12        .000000000
 -36590856.37948 -28475485.78746  23153036.64800  23153036.10100  23153035.26000
        51.00000        40.00000
 -19460472.61247 -14980207.84644  25606589.65200  25606588.64600  25606587.32700
        44.00000        24.00000
  -3491694.42346  -2611560.72042  26862352.59300  26862351.93800  26862351.83100
        39.00000        16.00000
 -22578333.48146 -17407670.39042  26711607.79200  26711605.79000  26711609.68700
        38.00000        14.00000
 -13473837.88446  -9641152.46943  25616066.68900  25616066.30800  25616067.82200
        41.00000        20.00000
 -10239097.66946  -7165579.83542  26166862.77000  26166861.18800  26166860.74800
        39.00000        16.00000
 -32206735.18648 -24996840.17045  24518928.61600  24518927.56100  24518929.57400
        48.00000        34.00000
 -41286405.82348 -32116306.15347  22520148.32600  22520147.54400  22520146.92900
        52.00000        44.00000
 -36712945.28747 -28515367.67544  25128626.97100  25128626.20900  25128623.58100
        44.00000        24.00000
 -31418107.47946 -24209000.42643  26562933.17100  26562932.71200  26562932.86800
        40.00000        18.00000
 11 04 10 00 06  0.0000000  0 10G05G21G15G10G26G30G25G29G02G12        .000000000
 -36578106.99748 -28465551.22746  23155462.54400  23155461.98700  23155461.22500
        51.00000        40.00000
 -19568098.49447 -15064072.13744  25586109.46100  25586108.14200  25586107.03800
        45.00000        24.00000
  -3630805.79346  -2719959.19242  26835881.49500  26835880.25500  26835880.23500
        39.00000        16.00000
 -22503495.42946 -17349355.16042  26725850.13200  26725847.61100  26725850.79600
        38.00000        14.00000
 -13608511.79346  -9746093.20343  25590439.79600  25590438.68300  25590439.81600
        41.00000        20.00000
 -10342672.18246  -7246287.24642  26147152.17300  26147151.75300  26147151.47000
        39.00000        14.00000
 -32164489.11448 -24963921.16645  24526968.07500  24526966.89300  24526969.03300
        48.00000        34.00000
 -41345778.09048 -32162570.27047  22508850.29200  22508849.39300  22508848.74800
        52.00000        44.00000
 -36670294.76247 -28482133.58444  25136743.83500  25136742.56500  25136740.19100
        44.00000        24.00000
 -31344471.13646 -24151621.47843  26576946.56800  26576945.17200  26576945.26900
        40.00000        18.00000
 11 04 10 00 06 30.0000000  0 10G05G21G15G10G26G30G25G29G02G12        .000000000
 -36564887.41248 -28455250.27946  23157977.98700  23157977.59700  23157976.71700
        51.00000        40.00000
 -19675637.59147 -15147868.78744  25565645.15300  25565643.92200  25565643.14100
        45.00000        26.00000
  -3769949.32246  -2828382.72742  26809401.84000  26809402.20200  26809402.40700
        38.00000        16.00000
 -22428550.55446 -17290956.68842  26740111.04100  26740109.84900  26740112.71200
        38.00000        14.00000
 -13742930.30746  -9850834.91943  25564859.51900  25564859.95800  25564861.25800
        40.00000        20.00000
 -10445750.35446  -7326607.93942  26127537.31700  26127537.59000  26127536.89600
        39.00000        16.00000
 -32121874.22148 -24930714.77845  24535076.90900  24535076.00100  24535078.50200
        48.00000        32.00000
 -41404716.51948 -32208496.32847  22497634.50800  22497633.81400  22497633.04300
        52.00000        44.00000
 -36627520.57547 -28448803.13644  25144882.94100  25144881.54400  25144879.96200
        44.00000        24.00000
 -31270823.43746 -24094233.66143  26590960.21000  26590960.33700  26590959.79000
        40.00000        18.00000
 11 04 10 00 07  0.0000000  0 10G05G21G15G10G26G30G25G29G02G12        .000000000
 -36551196.28148 -28444581.88746  23160583.49500  23160583.05600  23160582.11800
        51.00000        40.00000
 -19783086.27147 -15231594.99844  25545197.58800  25545197.01200  25545196.22000
        44.00000        26.00000
  -3909118.60246  -2936826.32242  26782919.96800  26782918.86400  26782919.17700
        39.00000        16.00000
 -22353497.95746 -17232474.30342  26754394.33000  26754392.11300  26754395.18000
        38.00000        14.00000
 -13877085.91946  -9955371.77043  25539331.42400  25539330.64300  25539332.54800
        41.00000        20.00000
 -10548326.70446  -7406537.58842  26108019.14700  26108018.51200  26108017.11500
        41.00000        16.00000
 -32078889.76648 -24897220.42445  24543256.71100  24543255.50000  24543258.02000
        48.00000        32.00000
 -41463216.65148 -32254080.85147  22486502.48800  22486501.81400  22486500.78800
        52.00000        44.00000
 -36584619.72947 -28415374.00044  25153046.44900  25153045.79400  25153044.31000
        44.00000        26.00000
 -31197163.54946 -24036836.38143  26604977.78800  26604977.33900  26604976.80200
        38.00000        18.00000
 11 04 10 00 07 30.0000000  0 10G05G21G15G10G26G30G25G29G02G12        .000000000
 -36537034.72148 -28433546.92846  23163278.35500  23163277.72000  23163276.98700
        51.00000        40.00000
 -19890443.54447 -15315249.96044  25524769.10100  25524767.32300  25524766.94200
        45.00000        26.00000
  -4048310.13846  -3045287.25243  26756432.56700  26756431.64900  26756431.48300
        39.00000        18.00000
 -22278338.81346 -17173908.90142  26768695.30000  26768694.25400  26768697.99600
        37.00000        12.00000
 -14010974.07146 -10059700.18843  25513853.33400  25513852.46500  25513854.28200
        41.00000        20.00000
 -10650397.84046  -7486073.55142  26088595.79000  26088595.71200  26088593.73900
        41.00000        16.00000
 -32035537.81547 -24863439.70045  24551506.00500  24551504.75500  24551507.89000
        47.00000        32.00000
 -41521275.57848 -32299321.58247  22475454.16400  22475453.45100  22475452.62100
        52.00000        44.00000
 -36541592.04047 -28381846.02944  25161235.50100  25161233.84000  25161232.18000
        45.00000        26.00000
 -31123493.15846 -23979430.89442  26618997.61300  26618996.09900  26618995.65000
        40.00000        16.00000
 11 04 10 00 08  0.0000000  0 10G05G21G15G10G26G30G25G29G02G12        .000000000
 -36522408.16748 -28422149.64046  23166061.48200  23166061.02300  23166060.27100
        50.00000        40.00000
 -19997712.95047 -15398836.48044  25504355.70600  25504354.64100  25504354.18200
        45.00000        26.00000
  -4187523.98046  -3153765.61343  26729940.84800  26729940.17400  26729939.88100
        39.00000        18.00000
 -22203078.52446 -17115264.67842  26783018.75600  26783015.91300  26783019.35200
        38.00000        12.00000
 -14144594.24846 -10163819.84543  25488426.20600  25488425.46300  25488427.33900
        41.00000        20.00000
 -10751964.76646  -7565216.63742  26069267.64600  26069268.61300  26069266.09300
        41.00000        16.00000
 -31991824.33547 -24829377.27245  24559824.27400  24559823.60900  24559825.70000
        47.00000        32.00000
 -41578895.13748 -32344219.95647  22464489.72100  22464488.76400  22464488.22700
        52.00000        44.00000
 -36498440.94847 -28348221.87344  25169446.77600  25169445.59400  25169443.14300
        44.00000        24.00000
 -31049818.34146 -23922021.95142  26633016.49100  26633016.03200  26633015.53400
        39.00000        16.00000
 11 04 10 00 08 30.0000000  0 10G05G21G15G10G26G30G25G29G02G12        .000000000
 -36507315.94448 -28410389.48946  23168934.07800  23168933.09100  23168932.16300
        51.00000        40.00000
 -20104890.24947 -15482351.21944  25483960.92900  25483959.42500  25483959.27900
        45.00000        26.00000
  -4326754.41446  -3262256.87142  26703444.88000  26703445.32900  26703445.10500
        38.00000        16.00000
 -22127717.19046 -17056541.66842  26797359.23900  26797357.58800  26797359.53200
        38.00000        12.00000
 -14277939.63247 -10267725.30943  25463052.47200  25463050.64500  25463052.33500
        42.00000        20.00000
 -10853022.24346  -7643962.73242  26050038.35800  26050037.55700  26050035.34000
        41.00000        16.00000
 -31947749.47647 -24795033.24245  24568211.75200  24568211.25300  24568212.97300
        47.00000        32.00000
 -41636071.17248 -32388772.71847  22453609.65800  22453608.97400  22453607.91000
        53.00000        44.00000
 -36455164.25147 -28314499.85344  25177681.78900  25177680.87100  25177678.46800
        44.00000        24.00000
 -30976138.94446 -23864609.44142  26647037.24400  26647036.54100  26647036.14000
        39.00000        16.00000
 11 04 10 00 09  0.0000000  0 10G05G21G15G10G26G30G25G29G02G12        .000000000
 -36491756.91248 -28398265.59346  23171894.43300  23171893.85700  23171893.00700
        51.00000        40.00000
 -20211972.70947 -15565792.06244  25463583.72600  25463582.29000  25463581.94900
        45.00000        26.00000
  -4465995.66546  -3370756.52942  26676949.86000  26676948.45300  26676948.91200
        39.00000        16.00000
 -22052254.20746 -16997739.49942  26811718.88700  26811717.69600  26811720.10800
        37.00000        14.00000
 -14411003.47947 -10371411.44543  25437729.86500  25437729.63100  25437731.30100
        42.00000        22.00000
 -10953565.07146  -7722307.82442  26030905.27900  26030904.18500  26030902.14300
        41.00000        16.00000
 -31903313.01047 -24760407.44345  24576668.07700  24576666.90500  24576668.70200
        47.00000        32.00000
 -41692799.15048 -32432976.34647  22442814.40400  22442813.74000  22442812.86100
        52.00000        44.00000
 -36411759.44547 -28280678.03744  25185940.79300  25185939.61100  25185938.02800
        43.00000        24.00000
 -30902454.59046 -23807193.07742  26661058.93500  26661058.42700  26661057.88000
        39.00000        16.00000
 11 04 10 00 09 30.0000000  0 10G05G21G15G10G26G30G25G29G02G12        .000000000
 -36475735.85248 -28385781.67446  23174943.43700  23174942.70400  23174941.64900
        51.00000        40.00000
 -20318962.90547 -15649161.01544  25443223.77400  25443222.25100  25443222.61200
        44.00000        26.00000
  -4605247.53746  -3479264.49942  26650449.42700  26650449.61300  26650449.60300
        38.00000        16.00000
 -21976694.67446 -16938862.10542  26826098.34600  26826096.50000  26826099.04000
        38.00000        12.00000
 -14543784.87247 -10474877.47043  25412462.05000  25412462.64600  25412463.81800
        42.00000        22.00000
 -11053594.25146  -7800252.65342  26011869.69800  26011869.42500  26011867.45200
        41.00000        16.00000
 -31858520.78448 -24725504.42845  24585191.91200  24585190.85700  24585192.89900
        48.00000        32.00000
 -41749081.00648 -32476832.35047  22432104.23300  22432103.36400  22432102.81700
        52.00000        44.00000
 -36368230.04747 -28246759.11044  25194224.63800  25194223.42600  25194222.16600
        44.00000        24.00000
 -30828770.96346 -23749777.28542  26675081.22200  26675080.13700  26675079.01400
        39.00000        16.00000
 11 04 10 00 10  0.0000000  0 10G05G21G15G10G26G30G25G29G02G12        .000000000
 -36459257.22948 -28372941.21446  23178079.01800  23178078.63700  23178077.65000
        51.00000        40.00000
 -20425863.15447 -15732459.89144  25422881.49300  25422879.92100  25422879.90100
        45.00000        26.00000
  -4744509.52146  -3587780.37042  26623949.62000  26623948.88800  26623948.75100
        39.00000        16.00000
 -21901043.08046 -16879912.90842  26840494.51900  26840493.39500  26840494.38200
        38.00000        12.00000
 -14676282.21347 -10578122.17643  25387250.36400  25387249.12300  25387250.24600
        43.00000        22.00000
 -11153109.64246  -7877797.12242  25992932.76900  25992932.09500  25992930.57100
        41.00000        16.00000
 -31813377.82248 -24690328.11945  24593782.52400  24593780.89300  24593783.42300
        48.00000        32.00000
 -41804917.15448 -32520341.05647  22421479.06700  22421478.15800  22421477.50400
        52.00000        44.00000
 -36324578.49547 -28212745.01144  25202531.17500  25202529.89500  25202529.69000
        43.00000        24.00000
 -30755092.81746 -23692365.77742  26689101.17400  26689100.47000  26689099.63000
        39.00000        16.00000
 11 04 10 00 10 30.0000000  0 10G05G21G15G10G26G30G25G29G02G12        .000000000
 -36442323.37948 -28359746.03446  23181301.55700  23181300.94200  23181299.78900
        51.00000        40.00000
 -20532673.09347 -15815688.38344  25402556.09200  25402554.60700  25402554.61700
        45.00000        26.00000
  -4883778.73546  -3696301.85042  26597447.31300  26597446.60900  26597447.55700
        39.00000        16.00000
 -21825301.80546 -16820893.88442  26854907.66900  26854905.95900  26854908.02000
        38.00000        12.00000
 -14808491.79147 -10681142.63343  25362091.35900  25362090.57700  25362091.37800
        43.00000        22.00000
 -11252109.26846  -7954939.70442  25974092.73300  25974092.74200  25974091.76600
        40.00000        16.00000
 -31767887.16248 -24654880.87845  24602438.68200  24602437.48100  24602440.29400
        48.00000        32.00000
 -41860306.36948 -32563501.49347  22410939.05200  22410938.26100  22410937.24500
        53.00000        44.00000
 -36280805.45747 -28178636.26544  25210861.29300  25210859.37800  25210859.46600
        43.00000        24.00000
 -30681423.26146 -23634960.95042  26703121.04800  26703119.51400  26703118.61500
        40.00000        16.00000
 11 04 10 00 11  0.0000000  0 10G05G21G15G10G26G30G25G29G02G12        .000000000
 -36424936.96048 -28346198.20646  23184610.03900  23184609.62900  23184608.25100
        51.00000        40.00000
 -20639392.99947 -15898846.71144  25382247.63000  25382246.45700  25382246.30100
        45.00000        26.00000
  -5023053.03246  -3804827.26942  26570944.08700  26570943.63700  26570944.33100
        39.00000        16.00000
 -21749473.60446 -16761807.13542  26869338.46100  26869335.79400  26869338.19700
        38.00000        12.00000
 -14940410.63247 -10783936.56043  25336988.27800  25336987.42800  25336988.24800
        42.00000        20.00000
 -11350591.38846  -8031679.02642  25955352.91000  25955351.51300  25955351.54300
        40.00000        16.00000
 -31722052.42548 -24619165.51345  24611160.77700  24611159.44900  24611161.58800
        48.00000        32.00000
 -41915247.98148 -32606313.14447  22400483.99300  22400482.99600  22400482.29300
        52.00000        44.00000
 -36236912.38147 -28144433.95844  25219213.53600  25219212.58800  25219211.84600
        43.00000        24.00000
 -30607765.08546 -23577564.98342  26717137.88400  26717136.32100  26717135.91000
        39.00000        16.00000
 11 04 10 00 11 30.0000000  0 10G05G21G15G10G26G30G25G29G02G12        .000000000
 -36407095.87148 -28332296.08646  23188005.30300  23188004.58100  23188003.35000
        51.00000        40.00000
 -20746018.26347 -15981931.30344  25361958.04900  25361956.22200  25361956.24200
        45.00000        26.00000
  -5162324.94046  -3913350.87542  26544442.22800  26544441.40800  26544441.95500
        40.00000        16.00000
 -21673556.95946 -16702651.44342  26883785.16500  26883783.01600  26883784.97000
        39.00000        12.00000
 -15072030.29147 -10886497.35343  25311942.24400  25311941.15000  25311941.46300
        43.00000        20.00000
 -11448549.46546  -8108009.99542  25936711.20200  25936710.42000  25936710.51800
        40.00000        16.00000
 -31675872.06748 -24583180.83345  24619948.49600  24619947.13800  24619949.88300
        48.00000        32.00000
 -41969736.05048 -32648771.39047  22390115.02200  22390114.15300  22390113.55700
        52.00000        44.00000
 -36192895.41447 -28110135.12244  25227589.93600  25227589.07700  25227588.32500
        43.00000        24.00000
 -30534116.60746 -23520176.58942  26731151.39800  26731150.76300  26731150.59700
        38.00000        14.00000
 11 04 10 00 12  0.0000000  0 10G05G21G15G10G26G30G25G29G02G12        .000000000
 -36388803.69048 -28318042.46946  23191486.02200  23191485.41600  23191484.32200
        51.00000        40.00000
 -20852550.62047 -16064943.49344  25341685.73900  25341683.83400  25341683.78600
        45.00000        26.00000
  -5301593.33546  -4021871.74742  26517939.58800  26517939.08000  26517940.47700
        39.00000        16.00000
 -21597555.85446 -16643429.92542  26898246.98100  26898245.38900  26898247.63600
        38.00000        12.00000
 -15203348.75847 -10988823.43743  25286952.41800  25286951.86100  25286952.38900
        42.00000        20.00000
 -11545983.28246  -8183932.45742  25918170.70400  25918169.25800  25918169.06300
        41.00000        16.00000
 -31629350.79748 -24546930.51545  24628800.87200  24628800.34500  24628802.40600
        48.00000        32.00000
 -42023771.29948 -32690876.79147  22379832.37500  22379831.61300  22379831.00800
        52.00000        44.00000
 -36148756.82747 -28075741.53644  25235989.71300  25235988.10100  25235986.98700
        44.00000        24.00000
 -30460482.51346 -23462799.40142  26745163.08600  26745162.67600  26745162.88100
        37.00000        14.00000
 11 04 10 00 12 30.0000000  0 10G05G21G15G10G26G30G25G29G02G12        .000000000
 -36370061.36748 -28303438.09246  23195052.91700  23195052.19400  23195050.68000
        51.00000        40.00000
 -20958988.34347 -16147881.95444  25321431.70600  25321429.46900  25321429.48900
        45.00000        26.00000
  -5440854.34746  -4130386.83943  26491439.73200  26491438.84300  26491440.13300
        40.00000        18.00000
 -21521471.49146 -16584143.53042  26912725.79500  26912723.59700  26912725.03300
        38.00000        12.00000
 -15334361.23946 -11090911.12743  25262020.87100  25262020.46000  25262021.55400
        41.00000        20.00000
 -11642889.67446  -8259443.94842  25899728.96400  25899728.55400  25899728.88600
        40.00000        16.00000
 -31582490.43347 -24510415.95545  24637718.04200  24637717.52400  24637719.57600
        47.00000        32.00000
 -42077351.22648 -32732627.39247  22369636.34500  22369635.56400  22369635.21200
        52.00000        44.00000
 -36104495.68247 -28041252.43244  25244411.53600  25244411.01900  25244409.80700
        43.00000        24.00000
 -30386864.35246 -23405434.63242  26759173.77800  26759171.97100  26759171.59000
        39.00000        14.00000
 11 04 10 00 13  0.0000000  0 10G05G21G15G10G26G30G25G29G02G12        .000000000
 -36350872.98648 -28288486.13646  23198703.82100  23198703.18600  23198702.12100
        50.00000        38.00000
 -21065333.37647 -16230748.19044  25301194.11300  25301192.87300  25301192.43300
        45.00000        26.00000
  -5580107.00046  -4238895.41842  26464940.92200  26464939.87600  26464941.17600
        40.00000        16.00000
 -21445308.09646 -16524795.53942  26927217.23800  26927217.22900  26927219.16300
        37.00000        12.00000
 -15465065.71746 -11192758.78043  25237148.11900  25237148.09900  25237149.40800
        41.00000        20.00000
 -11739268.57446  -8334544.40942  25881388.58200  25881388.03500  25881389.06100
        40.00000        16.00000
 -31535295.90148 -24473641.01445  24646699.58600  24646698.46200  24646701.25600
        48.00000        32.00000
 -42130475.97148 -32774023.31247  22359527.06800  22359526.26700  22359525.78800
        52.00000        44.00000
 -36060114.53847 -28006669.79443  25252857.49800  25252856.21800  25252854.44000
        42.00000        22.00000
 -30313266.75746 -23348085.85642  26773177.77800  26773177.59200  26773176.28300
        39.00000        16.00000
 11 04 10 00 13 30.0000000  0 10G05G21G15G10G26G30G25G29G02G12        .000000000
 -36331240.09648 -28273187.81246  23202439.94400  23202439.28900  23202438.21500
        51.00000        38.00000
 -21171584.50947 -16313541.27544  25280975.01200  25280973.97600  25280973.12700
        45.00000        26.00000
  -5719347.15046  -4347394.28943  26438443.77200  26438443.23400  26438444.26000
        40.00000        18.00000
 -21369067.13846 -16465387.17742  26941725.93300  26941724.59500  26941727.77000
        37.00000        12.00000
 -15595457.68447 -11294362.92743  25212336.77200  25212335.40400  25212336.77200
        42.00000        20.00000
 -11835116.81846  -8409231.32942  25863149.29300  25863148.85300  25863149.95700
        39.00000        16.00000
 -31487769.11848 -24436607.18745  24655743.97900  24655742.43600  24655744.75100
        48.00000        32.00000
 -42183143.80648 -32815063.19947  22349505.07100  22349504.40700  22349503.62600
        53.00000        44.00000
 -36015612.90347 -27971993.28343  25261326.90300  25261324.79300  25261322.61500
        44.00000        22.00000
 -30239691.35146 -23290754.39242  26787178.68200  26787178.27100  26787177.37300
        38.00000        16.00000
 11 04 10 00 14  0.0000000  0 10G05G21G15G10G26G30G25G29G02G12        .000000000
 -36311163.73748 -28257543.92746  23206260.35900  23206259.78200  23206258.64900
        51.00000        40.00000
 -21277740.93747 -16396260.54644  25260774.00200  25260772.62400  25260772.62400
        45.00000        26.00000
  -5858571.50646  -4455880.82243  26411951.23200  26411950.05000  26411950.96800
        40.00000        18.00000
 -21292750.24346 -16405919.60842  26956249.53500  26956247.05400  26956250.58000
        37.00000        12.00000
 -15725532.68047 -11395720.06443  25187584.04400  25187582.84300  25187584.48400
        42.00000        20.00000
 -11930432.02046  -8483502.91942  25845011.47800  25845011.21400  25845011.96600
        39.00000        16.00000
 -31439912.66348 -24399316.46845  24664850.56800  24664848.93700  24664851.85800
        48.00000        32.00000
 -42235352.71448 -32855745.47347  22339570.19900  22339569.43800  22339568.53900
        53.00000        44.00000
 -35970990.92847 -27937222.99143  25269817.39900  25269816.52000  25269813.99000
        43.00000        22.00000
 -30166140.30946 -23233441.94042  26801175.12100  26801173.92000  26801174.40800
        39.00000        16.00000
 11 04 10 00 14 30.0000000  0 10G05G21G15G10G26G30G25G29G02G12        .000000000
 -36290646.00848 -28241556.11446  23210165.04600  23210164.30300  23210163.04300
        51.00000        38.00000
 -21383800.99647 -16478904.73344  25240591.76600  25240590.38900  25240589.67600
        45.00000        26.00000
  -5997776.12546  -4564351.97843  26385459.63100  26385460.30500  26385461.42800
        38.00000        18.00000
 -21216358.59146 -16346393.73441  26970784.73100  26970784.17400  26970787.46600
        36.00000        10.00000
 -15855286.11147 -11496826.64143  25162893.55200  25162891.62700  25162893.70800
        43.00000        22.00000
 -12025210.89146  -8557356.58942  25826976.44600  25826975.45000  25826976.00700
        40.00000        16.00000
 -31391728.44547 -24361770.34645  24674019.45100  24674017.70200  24674021.09200
        47.00000        32.00000
 -42287100.41948 -32896068.37147  22329722.54000  22329721.84600  22329721.20200
        52.00000        44.00000
 -35926248.12047 -27902358.56044  25278332.62800  25278331.14300  25278329.04300
        44.00000        24.00000
 -30092615.48446 -23176149.90742  26815165.52400  26815165.18200  26815165.70900
        39.00000        16.00000
 11 04 10 00 15  0.0000000  0 11G05G21G15G10G26G18G30G25G29G02G12     .000000000
 -36269688.83148 -28225225.87746  23214153.15500  23214152.42200  23214151.18100
        51.00000        40.00000
 -21489764.93047 -16561473.99944  25220427.60200  25220426.58700  25220425.56100
        45.00000        26.00000
  -6136957.93546  -4672805.35943  26358974.54500  26358974.63200  26358975.60900
        38.00000        18.00000
 -21139894.53546 -16286811.46941  26985335.56700  26985335.07900  26985337.44300
        36.00000        10.00000
 -15984714.11147 -11597679.63943  25138263.95500  25138262.69500  25138264.07300
        43.00000        22.00000
   -423313.42456    -90355.36351  27430310.48900  27430308.79900  27430308.40800
        36.00000        10.00000
 -12119451.61146  -8630790.93943  25809042.95700  25809042.75200  25809042.83000
        40.00000        18.00000
 -31343219.49747 -24323971.18645  24683250.45000  24683249.33700  24683251.80800
        47.00000        32.00000
 -42338385.65248 -32936030.90347  22319963.43100  22319962.77600  22319961.96600
        53.00000        44.00000
 -35881385.00947 -27867400.39843  25286869.00600  25286868.17600  25286866.85700
        43.00000        22.00000
 -30019118.98746 -23118879.92742  26829153.10300  26829151.83300  26829151.16900
        40.00000        16.00000
 11 04 10 00 15 30.0000000  0 11G05G21G15G10G26G18G30G25G29G02G12     .000000000
 -36248296.51148 -28208556.57446  23218223.98300  23218223.44500  23218222.09700
        51.00000        40.00000
 -21595635.01447 -16643970.14344  25200281.57900  25200279.74200  25200279.46900
        46.00000        28.00000
  -6276116.55246  -4781240.66643  26332493.83500  26332493.37600  26332494.66500
        38.00000        18.00000
 -21063362.70246 -16227176.41742  26999899.71700  26999898.63300  26999900.99700
        37.00000        12.00000
 -16113815.28047 -11698277.95843  25113696.24200  25113695.70400  25113697.00400
        43.00000        22.00000
   -561632.14146   -198136.15541  27403990.04000  27403987.34400  27403987.08000
        36.00000         8.00000
 -12213154.59046  -8703806.26743  25791212.10500  25791211.83100  25791212.24100
        41.00000        18.00000
 -31294391.14047 -24285923.13945  24692542.48300  24692541.14400  24692543.60600
        47.00000        32.00000
 -42389209.73548 -32975634.09147  22310291.98300  22310291.49500  22310290.34200
        53.00000        44.00000
 -35836404.60147 -27832350.83743  25295428.75000  25295427.73400  25295426.42500
        43.00000        22.00000
 -29945655.98546 -23061636.04242  26843132.07700  26843131.80300  26843130.67000
        39.00000        16.00000
 11 04 10 00 16  0.0000000  0 12G05G21G15G10G26G18G30G25G29G16G02G12  .000000000
 -36226471.42048 -28191550.03846  23222377.06100  23222376.75800  23222375.56600
        51.00000        40.00000
 -21701410.67947 -16726392.71544  25180152.46400  25180151.39900  25180150.83200
        46.00000        28.00000
  -6415249.26346  -4889655.75943  26306017.73600  26306017.37400  26306018.33100
        39.00000        18.00000
 -20986765.32946 -16167490.28941  27014475.71600  27014474.42700  27014478.16800
        36.00000        10.00000
 -16242585.98847 -11798618.78343  25089192.28700  25089191.38800  25089192.95100
        43.00000        22.00000
   -699896.36646   -305874.50541  27377678.34300  27377676.93600  27377675.90100
        37.00000        10.00000
 -12306317.86346  -8776401.04843  25773483.83000  25773484.05500  25773483.49800
        41.00000        18.00000
 -31245246.48548 -24247628.62845  24701894.43500  24701893.04800  24701895.56800
        48.00000        30.00000
 -42439571.58048 -33014877.10047  22300708.02200  22300707.32800  22300706.91800
        52.00000        44.00000
   -548854.34255    -38597.41651  27633304.08500  27633302.24800  27633301.18300
        35.00000         6.00000
 -35791307.40447 -27797210.25343  25304010.63800  25304009.62300  25304007.85400
        44.00000        22.00000
 -29872229.47946 -23004420.61242  26857104.96500  26857104.32000  26857103.45100
        39.00000        14.00000
 11 04 10 00 16 30.0000000  0 12G05G21G15G10G26G18G30G25G29G16G02G12  .000000000
 -36204213.63748 -28174206.34246  23226612.97500  23226612.31000  23226611.11900
        51.00000        40.00000
 -21807089.81647 -16808740.06644  25160043.36500  25160041.71400  25160040.78600
        46.00000        28.00000
  -6554350.68346  -4998046.48343  26279548.77700  26279547.25300  26279548.25900
        40.00000        18.00000
 -20910103.20346 -16107753.68141  27029064.45300  27029062.64600  27029065.21500
        37.00000        10.00000
 -16371020.33147 -11898697.49943  25064752.09000  25064750.98600  25064752.66600
        43.00000        22.00000
   -838102.87546   -413567.86641  27351378.64200  27351377.25500  27351376.44400
        36.00000         8.00000
 -12398937.75946  -8848572.41643  25755858.86700  25755858.97400  25755858.42700
        41.00000        18.00000
 -31195786.50747 -24209088.40445  24711306.16000  24711305.24100  24711307.03900
        47.00000        30.00000
 -42489467.59848 -33053757.13347  22291213.35400  22291212.58200  22291212.06400
        52.00000        44.00000
   -668068.19245   -131491.37841  27610618.96800  27610614.82600  27610614.62100
        35.00000         8.00000
 -35746091.83947 -27761977.42943  25312614.01800  25312613.97900  25312612.40600
        43.00000        22.00000
 -29798839.80946 -22947233.88342  26871070.16500  26871069.73500  26871068.72900
        38.00000        14.00000
 11 04 10 00 17  0.0000000  0 12G05G21G15G10G26G18G30G25G29G16G02G12  .000000000
 -36181524.70548 -28156526.69146  23230930.29900  23230929.92700  23230928.91200
        51.00000        40.00000
 -21912671.40747 -16891011.41244  25139951.52600  25139950.11900  25139949.50400
        46.00000        28.00000
  -6693417.41246  -5106410.17343  26253084.12700  26253083.50100  26253084.77100
        38.00000        18.00000
 -20833377.36246 -16047967.36741  27043663.27200  27043663.88700  27043665.44000
        36.00000        10.00000
 -16499113.88347 -11998510.66943  25040376.74600  25040375.82700  25040377.33200
        43.00000        22.00000
   -976248.84846   -521214.03341  27325090.83800  27325089.38300  27325088.07400
        37.00000         8.00000
 -12491011.57447  -8920318.26543  25738339.29400  25738337.94600  25738337.63400
        42.00000        18.00000
 -31146013.41848 -24170304.20745  24720778.40000  24720776.90500  24720779.09300
        48.00000        32.00000
 -42538895.67948 -33092272.53947  22281808.01700  22281807.08000  22281806.37600
        53.00000        44.00000
   -786953.46346   -224129.34640  27587995.56800  27587991.47500  27587991.77800
        36.00000         4.00000
 -35700757.65447 -27726652.19443  25321241.33900  25321240.43100  25321239.55200
        43.00000        22.00000
 -29725488.94246 -22890077.40142  26885029.06400  26885028.01900  26885026.74000
        40.00000        14.00000
 11 04 10 00 17 30.0000000  0 12G05G21G15G10G26G18G30G25G29G16G02G12  .000000000
 -36158413.93248 -28138518.32946  23235327.97800  23235327.68500  23235326.86400
        51.00000        40.00000
 -22018162.48947 -16973212.24744  25119877.56400  25119875.86400  25119875.01400
        46.00000        28.00000
  -6832453.12946  -5214749.71143  26226627.56400  26226626.35300  26226626.79300
        39.00000        18.00000
 -20756597.06946 -15988138.69341  27058274.97400  27058274.42700  27058276.72300
        36.00000         8.00000
 -16626869.83447 -12098060.78043  25016065.99000  25016064.61300  25016065.67700
        43.00000        22.00000
  -1114339.80945   -628817.33141  27298811.25000  27298810.87900  27298809.77500
        35.00000         6.00000
 -12582544.45047  -8991642.59343  25720920.85400  25720919.61400  25720919.49600
        42.00000        18.00000
 -31095937.23447 -24131283.82645  24730306.95500  24730305.68500  24730308.51800
        47.00000        30.00000
 -42587861.82448 -33130427.98647  22272489.63000  22272488.93600  22272488.40900
        53.00000        44.00000
   -905515.97246   -316515.78940  27565433.06500  27565431.00400  27565428.55200
        36.00000         2.00000
 -35655312.14247 -27691240.19343  25329888.75500  25329888.25600  25329887.41600
        42.00000        22.00000
 -29652186.85346 -22832958.88242  26898977.18000  26898976.96500  26898976.13400
        38.00000        14.00000
 11 04 10 00 18  0.0000000  0 12G05G21G15G10G26G18G30G25G29G16G02G12  .000000000
 -36134878.92448 -28120179.39746  23239806.75400  23239806.09000  23239805.43500
        51.00000        40.00000
 -22123558.13447 -17055338.70644  25099820.83300  25099819.60200  25099819.09400
        46.00000        28.00000
  -6971450.49646  -5323059.35443  26200177.01900  26200176.46300  26200176.76500
        40.00000        20.00000
 -20679760.05746 -15928265.82742  27072897.21700  27072896.09400  27072898.66300
        36.00000        12.00000
 -16754279.88347 -12197341.33943  24991819.78400  24991819.19800  24991820.32100
        43.00000        22.00000
  -1252369.87046   -736373.19241  27272545.51400  27272544.66400  27272544.22400
        36.00000         6.00000
 -12673529.76046  -9062540.25743  25703606.74100  25703605.47100  25703605.61700
        41.00000        18.00000
 -31045556.45947 -24092026.10445  24739893.36800  24739892.25400  24739895.14600
        46.00000        30.00000
 -42636360.25448 -33168218.98647  22263260.39800  22263259.86100  22263259.31400
        52.00000        44.00000
  -1023748.00445   -408644.67541  27542934.00700  27542931.73100  27542929.04500
        35.00000         6.00000
 -35609751.58047 -27655738.57243  25338558.54900  25338557.94400  25338557.40600
        42.00000        22.00000
 -29578931.07746 -22775876.49742  26912917.07000  26912917.00100  26912916.63000
        38.00000        14.00000
 11 04 10 00 18 30.0000000  0 12G05G21G15G10G26G18G30G25G29G16G02G12  .000000000
 -36110921.36448 -28101511.20446  23244365.72900  23244365.13300  23244364.48800
        51.00000        40.00000
 -22228857.03047 -17137389.77744  25079783.32600  25079781.69500  25079781.08900
        46.00000        28.00000
  -7110406.14446  -5431336.47443  26173733.88900  26173733.81000  26173734.58200
        39.00000        20.00000
 -20602867.73945 -15868349.83041  27087528.76000  27087527.08900  27087530.66400
        35.00000         8.00000
 -16881339.54547 -12296348.88643  24967641.85000  24967640.50200  24967641.66400
        43.00000        22.00000
  -1390336.56046   -843879.68441  27246291.49000  27246290.82500  27246289.61400
        37.00000         6.00000
 -12763964.85646  -9133009.19843  25686396.30900  25686396.27000  25686396.26000
        41.00000        18.00000
 -30994873.44547 -24052532.87845  24749538.68500  24749536.94600  24749539.93500
        47.00000        30.00000
 -42684389.31248 -33205644.24347  22254121.50500  22254120.62600  22254119.79500
        53.00000        44.00000
  -1141646.53445   -500513.72340  27520497.97500  27520498.27800  27520494.05800
        34.00000         4.00000
 -35564075.48147 -27620146.92743  25347250.64500  25347249.64900  25347249.67800
        42.00000        22.00000
 -29505723.74446 -22718831.83742  26926848.99900  26926847.73900  26926847.85600
        38.00000        12.00000
 11 04 10 00 19  0.0000000  0 12G05G21G15G10G26G18G30G25G29G16G02G12  .000000000
 -36086542.43648 -28082514.66746  23249004.86300  23249004.08200  23249003.50500
        51.00000        40.00000
 -22334058.39447 -17219364.86244  25059763.71500  25059762.44500  25059762.03500
        46.00000        28.00000
  -7249315.65046  -5539577.65743  26147300.19400  26147300.35000  26147301.00500
        39.00000        20.00000
 -20525921.50845 -15808391.79741  27102171.11600  27102169.32800  27102173.27400
        35.00000         8.00000
 -17008044.49847 -12395080.01643  24943530.69200  24943529.54900  24943530.64300
        43.00000        22.00000
  -1528237.39446   -951334.84741  27220050.99500  27220049.23600  27220048.65000
        37.00000        10.00000
 -12853847.10347  -9203047.32643  25669293.50600  25669292.19700  25669292.44100
        42.00000        18.00000
 -30943890.29647 -24012805.77845  24759240.73700  24759239.45700  24759242.00700
        47.00000        30.00000
 -42731946.84648 -33242702.06947  22245071.54300  22245070.87900  22245069.93100
        53.00000        44.00000
  -1259208.03845   -592120.17841  27498126.94200  27498125.90700  27498124.42200
        33.00000         8.00000
 -35518283.77347 -27584465.16943  25355964.52500  25355963.72400  25355963.77300
        42.00000        22.00000
 -29432566.52446 -22661826.22142  26940768.57100  26940768.47300  26940768.75600
        37.00000        12.00000
 11 04 10 00 19 30.0000000  0 12G05G21G15G10G26G18G30G25G29G16G02G12  .000000000
 -36061746.68048 -28063193.32946  23253723.37600  23253722.76000  23253722.12500
        51.00000        38.00000
 -22439163.79547 -17301265.17044  25039762.94800  25039761.69700  25039761.17000
        46.00000        28.00000
  -7388178.38746  -5647782.38943  26120877.20600  26120875.53500  26120875.98500
        41.00000        20.00000
 -20448925.79746 -15748395.22541  27116825.38900  27116820.86600  27116825.47700
        37.00000        10.00000
 -17134392.78247 -12493533.22643  24919486.60400  24919486.25300  24919487.36600
        43.00000        22.00000
  -1666073.29246  -1058739.40541  27193820.70800  27193819.85800  27193818.54900
        36.00000         6.00000
 -12943177.13046  -9272655.14643  25652292.95900  25652293.16400  25652293.26100
        40.00000        18.00000
 -30892612.23547 -23972848.87745  24768998.95700  24768997.64800  24768999.53300
        47.00000        30.00000
 -42779033.65648 -33279393.11147  22236110.89400  22236109.95600  22236109.53600
        52.00000        44.00000
  -1376432.21445   -683463.77141  27475820.01000  27475818.37800  27475817.59700
        33.00000         6.00000
 -35472378.86147 -27548695.20143  25364699.95400  25364698.99600  25364699.35800
        42.00000        20.00000
 -29359464.13346 -22604863.35342  26954681.15800  26954679.22400  26954679.74200
        37.00000        12.00000
 11 04 10 00 20  0.0000000  0 12G05G21G15G10G26G18G30G25G29G16G02G12  .000000000
 -36036533.81048 -28043546.96946  23258521.16900  23258520.61200  23258520.15300
        51.00000        38.00000
 -22544170.80147 -17383088.79044  25019780.40800  25019779.15800  25019778.85500
        46.00000        28.00000
  -7526989.38346  -5755946.80643  26094462.05200  26094460.81100  26094460.94800
        41.00000        22.00000
 -20371880.23046 -15688359.80041  27131485.04500  27131483.67700  27131486.77400
        36.00000         8.00000
 -17260378.36647 -12591703.81044  24895513.32800  24895512.25300  24895513.37700
        43.00000        24.00000
  -1803839.99345  -1166090.08241  27167603.48100  27167602.43600  27167602.62200
        35.00000         8.00000
 -13031950.64546  -9341829.33543  25635400.72300  25635399.83400  25635400.23500
        41.00000        18.00000
 -30841039.86047 -23932662.62645  24778812.39800  24778811.03000  24778813.87300
        47.00000        30.00000
 -42825646.26548 -33315714.65447  22227241.20900  22227240.29000  22227239.48000
        53.00000        44.00000
  -1493314.15045   -774540.61241  27453577.92000  27453577.04100  27453574.95000
        34.00000         8.00000
 -35426358.84846 -27512835.52243  25373456.78500  25373456.35500  25373456.26700
        41.00000        20.00000
 -29286416.78546 -22547943.38242  26968581.27100  26968580.03100  26968580.76300
        37.00000        14.00000
 11 04 10 00 20 30.0000000  0 12G05G21G15G10G26G18G30G25G29G16G02G12  .000000000
 -36010907.95048 -28023578.80346  23263397.70500  23263397.03100  23263396.53200
        50.00000        40.00000
 -22649080.72147 -17464836.76044  24999817.12200  24999815.59800  24999814.90400
        46.00000        28.00000
  -7665746.97346  -5864069.60143  26068057.04700  26068056.47100  26068056.58800
        41.00000        22.00000
 -20294788.72346 -15628288.57941  27146155.98300  27146154.25400  27146157.10600
        37.00000        10.00000
 -17385999.39447 -12689590.31943  24871607.83400  24871606.94500  24871608.47900
        43.00000        22.00000
  -1941537.53746  -1273386.85241  27141403.20300  27141399.22700  27141398.87600
        37.00000        10.00000
 -13120167.42746  -9410569.69743  25618613.51800  25618612.49200  25618613.04900
        40.00000        18.00000
 -30789178.00447 -23892250.81245  24788681.58700  24788680.45400  24788683.02300
        47.00000        30.00000
 -42871785.28148 -33351667.14547  22218461.15800  22218460.44500  22218459.61400
        53.00000        44.00000
  -1609853.31545   -865350.45941  27431399.95000  27431400.13500  27431399.44200
        32.00000         6.00000
 -35380226.19447 -27476888.12543  25382236.84500  25382235.41900  25382235.01900
        42.00000        20.00000
 -29213429.19046 -22491069.95442  26982470.33700  26982469.56500  26982470.15100
        37.00000        12.00000
 11 04 10 00 21  0.0000000  0 12G05G21G15G10G26G18G30G25G29G16G02G12  .000000000
 -35984870.31548 -28003289.77146  23268352.61300  23268352.00700  23268351.43100
        50.00000        40.00000
 -22753892.34447 -17546508.16244  24979872.31700  24979870.91100  24979869.80700
        46.00000        28.00000
  -7804447.35446  -5972147.84343  26041662.60200  26041662.31900  26041662.47500
        41.00000        20.00000
 -20217652.85446 -15568182.79942  27160835.24400  27160832.82200  27160835.63500
        37.00000        12.00000
 -17511251.12247 -12787189.06744  24847773.38600  24847772.33100  24847773.73800
        43.00000        24.00000
  -2079163.75646  -1380628.03641  27115213.49400  27115210.89600  27115209.68400
        37.00000         6.00000
 -13207825.07546  -9478874.37943  25601933.83300  25601932.06500  25601931.78200
        41.00000        18.00000
 -30737028.82147 -23851615.11345  24798604.97100  24798603.77900  24798606.28000
        47.00000        30.00000
 -42917448.83348 -33387249.14747  22209771.23000  22209770.56600  22209770.12700
        52.00000        44.00000
  -1726046.31445   -955890.52641  27409290.37800  27409290.10500  27409288.29700
        34.00000         6.00000
 -35333980.42447 -27440852.57443  25391037.93700  25391035.65100  25391035.66100
        42.00000        20.00000
 -29140502.62946 -22434244.11242  26996348.42200  26996347.98200  26996347.34700
        37.00000        12.00000
 11 04 10 00 21 30.0000000  0 12G05G21G15G10G26G18G30G25G29G16G02G12  .000000000
 -35958425.58448 -27982683.52146  23273384.77900  23273384.23200  23273383.72400
        50.00000        38.00000
 -22858608.81147 -17628105.41744  24959944.94000  24959943.60100  24959942.72200
        46.00000        28.00000
  -7943089.94946  -6080181.07843  26015280.07500  26015279.79100  26015279.35200
        41.00000        20.00000
 -20140477.42346 -15508046.18741  27175520.68900  27175518.65700  27175521.85100
        37.00000        10.00000
 -17636132.46047 -12884499.18244  24824009.03600  24824008.26500  24824009.45600
        43.00000        24.00000
  -2216719.65645  -1487814.41841  27089036.10300  27089035.07700  27089033.87600
        35.00000         8.00000
 -13294924.22446  -9546743.87243  25585358.28000  25585357.87000  25585356.82400
        41.00000        18.00000
 -30684597.90047 -23810759.87844  24808581.63200  24808580.40200  24808583.02900
        46.00000        28.00000
 -42962638.15448 -33422461.63547  22201172.26600  22201171.72900  22201170.93800
        53.00000        44.00000
  -1841893.12045  -1046160.77541  27387245.64900  27387245.61000  27387244.19400
        34.00000         6.00000
 -35287624.47647 -27404731.15743  25399859.46500  25399857.48200  25399857.11000
        43.00000        22.00000
 -29067642.00446 -22377469.62142  27010213.36900  27010213.14400  27010212.17700
        36.00000        12.00000
 11 04 10 00 22  0.0000000  0 12G05G21G15G10G26G18G30G25G29G16G02G12  .000000000
 -35931574.13648 -27961760.34946  23278494.85800  23278494.17400  23278493.23700
        51.00000        38.00000
 -22963226.33647 -17709625.54544  24940036.63000  24940035.56500  24940034.85200
        46.00000        28.00000
  -8081669.46746  -6188165.13543  25988909.29800  25988908.89800  25988909.09300
        41.00000        20.00000
 -20063261.92346 -15447878.36741  27190214.70000  27190213.30300  27190216.43900
        37.00000        10.00000
 -17760637.14747 -12981515.81944  24800316.47500  24800316.15200  24800317.32400
        43.00000        24.00000
  -2354201.46646  -1594943.04541  27062873.96100  27062873.39400  27062872.09500
        36.00000        10.00000
 -13381460.69546  -9614174.91743  25568891.03900  25568890.23800  25568889.74900
        40.00000        18.00000
 -30631885.96547 -23769685.67344  24818612.72300  24818611.30700  24818613.23100
        46.00000        28.00000
 -43007350.04748 -33457302.08747  22192664.27600  22192663.45500  22192662.45900
        53.00000        44.00000
  -1957388.97545  -1136157.60941  27365269.76800  27365268.25400  27365266.87600
        35.00000         6.00000
 -35241156.74547 -27368522.62643  25408701.37900  25408700.39200  25408699.47400
        42.00000        20.00000
 -28994847.91646 -22320746.99041  27024065.53900  27024065.03100  27024063.91700
        36.00000        10.00000
 11 04 10 00 22 30.0000000  0 12G05G21G15G10G26G18G30G25G29G16G02G12  .000000000
 -35904320.20048 -27940523.54846  23283680.82800  23283680.32000  23283679.36300
        50.00000        38.00000
 -23067747.33447 -17791070.47244  24920146.91000  24920145.88400  24920144.91700
