     2.11           OBSERVATION DATA    M (MIXED)           RINEX VERSION / TYPE
teqc  2009Mar23                         20150827 19:35:41UTCPGM / RUN BY / DATE
MSXP|IAx86-PII|bcc32 5.0|MSWin95->XP|486/DX+                COMMENT
TPP 3.5.7                               29-JUL-15 23:59     COMMENT
                                                            COMMENT
                                                            COMMENT
                                                            COMMENT
FLNM                                                        MARKER NAME
FLNM                                                        MARKER NUMBER
PIVOT               NLSC                                    OBSERVER / AGENCY
KQHE16028LC         TPS NET G3A         E2G3_3 3.6 Feb,28,20REC # / TYPE / VERS
0                   TPSCR3_GGD                              ANT # / TYPE
 -3048091.2167  4983134.3127  2552645.0522                  APPROX POSITION XYZ
        0.0000        0.0000        0.0000                  ANTENNA: DELTA H/E/N
     1     1                                                WAVELENGTH FACT L1/2
     5    C1    L1    P2    L2    P1                        # / TYPES OF OBSERV
    30.0000                                                 INTERVAL
     0                                                      RCV CLOCK OFFS APPL
    17                                                      LEAP SECONDS
Forced Modulo Decimation to 30 seconds                      COMMENT
teqc edited: all GLONASS satellites excluded                COMMENT
teqc edited: all Galileo satellites excluded                COMMENT
  2015     7    30     0     0    0.0000000     GPS         TIME OF FIRST OBS
                                                            END OF HEADER
 15  7 30  0  0  0.0000000  0 11G 3G 8G14G16G19G21G23G26G27G31G32
  24370234.189    14820207.615 3  24370237.762    28488833.643 6  24370234.498
  22319726.692   -29509654.573 6  22319727.846   -13462023.698 7  22319726.182
  24150073.803     9468952.622 4  24150073.827   -10161411.387 5  24150072.975
  20805652.928   -50049126.029 7  20805649.379   -19661943.450 9  20805651.744
  23945962.941   -25158042.698 5  23945959.562    -6802873.387 6  23945961.334
  25007083.062   -19581830.351 2  25007080.786   -15040680.944 4  25007080.426
  22556196.687   -66015746.641 7  22556191.911     4283483.018 7  22556195.542
  21255920.275   -60265848.623 7  21255920.751   -34595377.482 8  21255919.642
  21183825.789   -39673177.963 7  21183825.243   -18113362.138 9  21183825.063
  21690622.388   -70564376.917 7  21690618.769   -24426734.477 8  21690621.809
  24224864.559     1473360.236 5  24224865.264    32087860.390 6  24224862.790
 15  7 30  0  0 30.0000000  0 11G 3G 8G14G16G19G21G23G26G27G31G32
  24375897.436    14849963.986 3  24375901.142    28512020.365 6  24375896.057
  22300157.868   -29612489.943 6  22300159.010   -13542155.120 8  22300157.079
  24168840.181     9567567.849 4  24168840.808   -10084568.570 5  24168838.595
  20805618.587   -50049307.613 7  20805614.741   -19662084.939 9  20805617.337
  23921762.117   -25285217.884 5  23921759.553    -6901970.808 6  23921760.171
  25002880.235   -19603914.769 3  25002877.726   -15057889.569 4  25002878.400
  22538888.730   -66106700.843 6  22538884.803     4212609.634 7  22538887.573
  21261887.089   -60234494.258 7  21261887.161   -34570945.531 8  21261886.615
  21167276.903   -39760143.915 7  21167276.076   -18181127.803 9  21167276.136
  21692450.645   -70554768.963 7  21692447.254   -24419247.790 8  21692449.862
  24234634.097     1524696.877 5  24234633.476    32127862.818 6  24234632.427
 15  7 30  0  1  0.0000000  0 11G 3G 8G14G16G19G21G23G26G27G31G32
  24381596.338    14879910.196 4  24381598.146    28535355.009 6  24381595.532
  22280637.958   -29715066.208 6  22280639.029   -13622084.644 8  22280637.548
  24187621.825     9666270.729 4  24187623.893   -10007657.451 5  24187621.027
  20805630.540   -50049245.259 7  20805626.594   -19662036.348 8  20805629.233
  23897571.971   -25412333.367 5  23897570.508    -7001021.723 6  23897570.008
  24998723.805   -19625760.354 3  24998720.918   -15074912.099 4  24998721.397
  22521646.967   -66197305.632 6  22521642.347     4142008.526 7  22521645.756
  21267870.629   -60203050.424 7  21267870.593   -34546443.855 8  21267870.068
  21150803.928   -39846710.276 7  21150803.236   -18248582.096 9  21150803.251
  21694312.641   -70544983.978 7  21694309.184   -24411623.156 8  21694312.074
  24244392.078     1575976.924 5  24244392.584    32167821.169 6  24244391.442
 15  7 30  0  1 30.0000000  0 11G 3G 8G14G16G19G21G23G26G27G31G32
  24387330.007    14910044.737 4  24387332.378    28558836.427 6  24387329.617
  22261168.510   -29817379.578 6  22261169.622   -13701809.312 7  22261167.976
  24206421.294     9765059.918 4  24206422.122    -9930679.068 5  24206420.788
  20805688.430   -50048939.722 7  20805684.757   -19661798.257 8  20805687.188
  23873395.020   -25539385.323 5  23873393.260    -7100023.143 6  23873393.128
  24994611.453   -19647364.623 3  24994609.144   -15091746.591 4  24994609.813
  22504472.802   -66287557.048 6  22504468.095     4071682.767 7  22504472.058
  21273870.825   -60171517.596 7  21273871.172   -34521872.834 8  21273870.315
  21134407.748   -39932873.632 7  21134406.939   -18315722.363 9  21134406.702
  21696208.423   -70535020.046 7  21696205.153   -24403859.081 8  21696208.172
  24254139.584     1627198.955 5  24254139.593    32207734.313 6  24254137.209
 15  7 30  0  2  0.0000000  0 11G 3G 8G14G16G19G21G23G26G27G31G32
  24393100.622    14940366.942 3  24393102.223    28582464.073 5  24393099.749
  22241749.657   -29919425.937 6  22241750.329   -13781325.923 7  22241748.965
  24225235.777     9863934.794 4  24225237.888    -9853633.923 5  24225234.929
  20805792.832   -50048390.517 7  20805789.127   -19661370.298 8  20805791.663
  23849230.320   -25666369.202 5  23849228.177    -7198971.503 6  23849229.052
  24990547.577   -19668723.973 3  24990545.643   -15108390.240 4  24990545.445
  22487366.614   -66377450.974 6  22487361.844     4001635.578 7  22487366.170
  21279888.912   -60139895.243 7  21279889.044   -34497232.058 8  21279888.109
  21118088.564   -40018629.637 7  21118088.117   -18382545.210 9  21118087.940
  21698139.468   -70524873.939 7  21698136.338   -24395953.054 8  21698138.934
  24263874.768     1678362.262 5  24263876.777    32247601.720 6  24263872.951
 15  7 30  0  2 30.0000000  0 11G 3G 8G14G16G19G21G23G26G27G31G32
  24398906.298    14970875.420 4  24398909.146    28606236.845 5  24398905.803
  22222382.705   -30021201.422 6  22222383.613   -13860631.466 7  22222381.275
  24244067.603     9962894.102 4  24244069.174    -9776522.974 5  24244067.351
  20805943.151   -50047598.412 7  20805939.812   -19660753.064 8  20805942.333
  23825079.912   -25793279.890 5  23825078.165    -7297862.846 6  23825078.249
  24986529.992   -19689835.511 2  24986528.691   -15124840.798 4  24986528.607
  22470329.205   -66466983.377 6  22470324.330     3931870.087 7  22470328.224
  21285923.516   -60108183.437 7  21285923.708   -34472521.578 8  21285922.676
  21101847.943   -40103974.615 7  21101847.574   -18449047.785 9  21101847.322
  21700105.300   -70514543.059 7  21700102.251   -24387903.050 8  21700104.601
  24273599.568     1729465.853 5  24273601.609    32287422.577 6  24273597.292
 15  7 30  0  3  0.0000000  0 11G 3G 8G14G16G19G21G23G26G27G31G32
  24404746.908    15001564.143 4  24404748.386    28630150.077 5  24404746.932
  22203066.738   -30122706.615 6  22203067.160   -13939726.389 8  22203065.769
  24262914.638    10061932.153 4  24262915.450    -9699350.655 5  24262913.687
  20806139.665   -50046568.041 7  20806135.864   -19659950.173 8  20806138.514
  23800943.325   -25920118.299 5  23800941.538    -7396697.835 6  23800941.187
  24982558.261   -19710700.662 2  24982557.733   -15141099.358 4  24982557.718
  22453360.352   -66556154.622 6  22453355.462     3862386.025 7  22453359.120
  21291974.059   -60076386.993 7  21291974.242   -34447745.140 8  21291973.235
  21085685.721   -40188909.629 7  21085684.785   -18515230.912 9  21085684.689
  21702105.884   -70504029.674 7  21702102.871   -24379710.827 8  21702105.530
  24283312.322     1780503.806 5  24283313.392    32327192.292 6  24283311.440
 15  7 30  0  3 30.0000000  0 11G 3G 8G14G16G19G21G23G26G27G31G32
  24410620.037    15032432.258 3  24410621.632    28654203.119 5  24410619.585
  22183803.181   -30223937.784 6  22183803.885   -14018607.778 8  22183802.278
  24281775.834    10161048.384 3  24281777.267    -9622117.409 5  24281774.992
  20806381.139   -50045299.598 7  20806377.329   -19658961.776 8  20806380.006
  23776821.055   -26046880.281 5  23776820.024    -7495473.292 6  23776819.364
  24978637.644   -19731315.907 3  24978633.210   -15157163.202 4  24978634.151
  22436461.426   -66644960.553 6  22436456.309     3793186.621 7  22436460.449
  21298040.776   -60044505.636 7  21298041.094   -34422902.532 8  21298040.033
  21069602.017   -40273430.622 7  21069601.313   -18581091.418 9  21069600.971
  21704141.738   -70493330.908 7  21704138.597   -24371374.145 8  21704141.340
  24293011.513     1831475.452 5  24293012.919    32366910.346 6  24293011.039
 15  7 30  0  4  0.0000000  0 11G 3G 8G14G16G19G21G23G26G27G31G32
  24416528.029    15063475.805 3  24416530.014    28678392.806 5  24416527.664
  22164592.054   -30324893.155 6  22164592.666   -14097274.268 8  22164590.822
  24300651.511    10260238.785 3  24300652.269    -9544826.369 5  24300650.027
  20806666.991   -50043796.179 7  20806663.379   -19657790.290 8  20806665.855
  23752714.309   -26173563.566 5  23752712.669    -7594187.428 6  23752712.477
  24974761.151   -19751681.279 3  24974758.872   -15173032.342 4  24974759.628
  22419631.854   -66733400.026 6  22419627.033     3724272.774 7  22419630.412
  21304123.418   -60012541.987 7  21304123.316   -34397995.802 8  21304122.741
  21053596.910   -40357536.571 7  21053596.320   -18646628.514 9  21053596.287
  21706212.929   -70482446.629 7  21706210.010   -24362892.914 8  21706212.348
  24302698.728     1882376.983 5  24302699.777    32406573.756 6  24302696.332
 15  7 30  0  4 30.0000000  0 11G 3G 8G14G16G19G21G23G26G27G31G32
  24422468.462    15094689.605 4  24422468.696    28702715.174 5  24422468.411
  22145432.912   -30425573.251 6  22145433.880   -14175726.258 8  22145432.195
  24319539.920    10359498.543 4  24319541.728    -9467481.268 4  24319538.622
  20806997.162   -50042061.904 7  20806993.471   -19656438.910 8  20806996.046
  23728622.235   -26300168.011 5  23728621.053    -7692840.120 6  23728620.682
  24970932.885   -19771797.526 2  24970931.428   -15188707.347 4  24970930.786
  22402871.789   -66821472.938 7  22402866.968     3655644.550 7  22402870.736
  21310220.169   -59980499.981 7  21310220.741   -34373028.022 8  21310220.142
  21037670.808   -40441227.617 7  21037670.301   -18711842.309 9  21037670.127
  21708319.082   -70471378.384 7  21708316.099   -24354268.329 8  21708318.603
  24312370.788     1933203.456 5  24312371.127    32446178.679 5  24312368.644
 15  7 30  0  5  0.0000000  0 11G 3G 8G14G16G19G21G23G26G27G31G32
  24428440.313    15126071.114 5  24428441.815    28727168.242 5  24428439.851
  22126327.022   -30525975.336 6  22126327.621   -14253961.614 8  22126326.224
  24338441.747    10458824.925 4  24338442.782    -9390084.248 4  24338440.266
  20807370.988   -50040098.678 7  20807367.108   -19654909.125 8  20807369.537
  23704545.588   -26426690.591 5  23704543.795    -7791429.026 6  23704544.188
  24967152.586   -19791663.094 2  24967150.448   -15204187.019 4  24967150.544
  22386182.528   -66909176.569 6  22386177.765     3587304.081 7  22386181.398
  21316332.658   -59948380.903 7  21316333.141   -34348000.183 8  21316331.974
  21021824.300   -40524501.464 7  21021823.682   -18776731.012 9  21021823.613
  21710460.674   -70460124.885 7  21710457.367   -24345499.396 8  21710460.212
  24322027.532     1983952.524 5  24322029.582    32485723.300 5  24322026.572
 15  7 30  0  5 30.0000000  0 11G 3G 8G14G16G19G21G23G26G27G31G32
  24434444.022    15157621.847 4  24434444.853    28751753.170 6  24434444.010
  22107275.259   -30626092.629 6  22107276.203   -14331975.055 8  22107274.929
  24357356.043    10558219.910 3  24357357.165    -9312633.758 4  24357355.048
  20807788.422   -50037903.736 7  20807784.815   -19653198.779 8  20807787.160
  23680486.008   -26553124.039 5  23680484.749    -7889948.479 6  23680484.299
  24963421.264   -19811271.851 2  24963420.697   -15219466.584 4  24963419.348
  22369564.861   -66996504.212 6  22369560.092     3519256.593 7  22369564.013
  21322459.855   -59916182.002 7  21322460.131   -34322910.145 8  21322459.259
  21006058.466   -40607351.665 7  21006057.777   -18841289.604 9  21006057.837
  21712638.336   -70448680.747 7  21712635.099   -24336581.917 8  21712637.881
  24331670.581     2034625.847 5  24331670.725    32525208.862 5  24331668.908
 15  7 30  0  6  0.0000000  0 11G 3G 8G14G16G19G21G23G26G27G31G32
  24440480.454    15189345.543 4  24440481.878    28776472.875 6  24440480.356
  22088279.665   -30725916.520 6  22088280.106   -14409759.878 8  22088278.727
  24376283.575    10657687.165 3  24376283.779    -9235126.942 4  24376281.725
  20808251.211   -50035472.595 7  20808247.380   -19651304.377 8  20808249.946
  23656444.697   -26679459.210 5  23656444.101    -7988391.347 6  23656443.759
  24959740.490   -19830615.963 2  24959739.234   -15234539.935 4  24959738.041
  22353019.858   -67083447.196 6  22353014.516     3451508.835 7  22353018.431
  21328603.463   -59883898.181 7  21328603.631   -34297753.934 8  21328602.834
  20990374.902   -40689769.582 7  20990374.350   -18905511.353 9  20990374.083
  21714853.967   -70437038.354 7  21714850.403   -24327509.942 8  21714853.536
  24341299.822     2085227.399 4  24341299.255    32564638.509 5  24341298.512
 15  7 30  0  6 30.0000000  0 11G 3G 8G14G16G19G21G23G26G27G31G32
  24446548.134    15221234.910 3  24446551.695    28801321.685 5  24446548.730
  22069338.955   -30825448.918 7  22069339.662   -14487317.562 8  22069338.709
  24395223.518    10757219.884 3  24395225.284    -9157569.096 4  24395222.715
  20808757.552   -50032811.349 7  20808753.909   -19649230.673 8  20808756.293
  23632422.936   -26805697.817 5  23632421.863    -8086758.977 7  23632420.667
  24956109.530   -19849698.683 2  24956106.865   -15249409.595 4  24956107.138
  22336548.026   -67170006.896 6  22336543.727     3384059.741 7  22336546.973
  21334761.806   -59851535.432 7  21334762.112   -34272536.219 8  21334761.080
  20974773.076   -40771757.542 7  20974772.470   -18969398.073 9  20974772.347
  21717106.605   -70425201.303 7  21717103.148   -24318286.280 8  21717105.799
  24350913.596     2135750.274 4  24350914.010    32604006.866 5  24350912.406
 15  7 30  0  7  0.0000000  0 11G 3G 8G14G16G19G21G23G26G27G31G32
  24452648.770    15253288.777 3  24452651.824    28826298.661 5  24452648.764
  22050454.821   -30924686.058 6  22050455.528   -14564645.173 8  22050454.473
  24414176.988    10856817.057 3  24414177.243    -9079961.031 4  24414175.804
  20809307.770   -50029920.555 7  20809303.885   -19646978.101 8  20809306.535
  23608419.873   -26931835.178 6  23608418.419    -8185047.727 7  23608418.461
  24952529.091   -19868516.666 3  24952526.213   -15264072.953 4  24952526.210
  22320149.699   -67256179.392 6  22320145.277     3316912.360 7  22320148.758
  21340935.213   -59819093.593 7  21340935.579   -34247256.876 8  21340934.431
  20959253.872   -40853311.842 7  20959253.114   -19032946.875 9  20959252.892
  21719396.537   -70413166.847 7  21719393.587   -24308908.808 8  21719396.168
  24360513.427     2186193.426 4  24360513.616    32643313.106 5  24360511.967
 15  7 30  0  7 30.0000000  0 11G 3G 8G14G16G19G21G23G26G27G31G32
  24458779.336    15285504.966 4  24458782.220    28851402.115 5  24458779.378
  22031627.483   -31023624.813 6  22031628.268   -14641740.267 8  22031626.319
  24433141.052    10956476.329 3  24433142.482    -9002304.566 4  24433139.931
  20809901.224   -50026801.259 7  20809897.594   -19644547.470 8  20809899.884
  23584436.138   -27057868.116 5  23584433.943    -8283255.115 6  23584433.823
  24948998.111   -19887067.758 3  24948996.048   -15278528.357 4  24948996.396
  22303825.679   -67341961.991 6  22303821.257     3250068.803 7  22303824.779
  21347123.802   -59786573.535 7  21347124.024   -34221916.583 8  21347122.926
  20943817.472   -40934429.832 7  20943816.845   -19096155.694 9  20943816.671
  21721724.656   -70400933.395 7  21721721.394   -24299376.270 8  21721724.251
  24370096.569     2236554.834 4  24370097.241    32682555.646 5  24370094.585
 15  7 30  0  8  0.0000000  0 11G 3G 8G14G16G19G21G23G26G27G31G32
  24464940.032    15317880.175 3  24464941.660    28876629.510 6  24464938.147
  22012857.300   -31122263.692 7  22012857.747   -14718601.703 8  22012856.041
  24452117.570    11056194.896 3  24452118.781    -8924601.887 4  24452115.939
  20810537.630   -50023455.619 7  20810534.245   -19641940.471 8  20810536.457
  23560473.079   -27183794.298 5  23560471.238    -8381379.312 6  23560470.600
  24945517.658   -19905351.750 2  24945516.807   -15292775.626 4  24945516.600
  22287576.538   -67427352.749 6  22287572.272     3183530.566 7  22287575.716
  21353326.694   -59753977.195 7  21353326.867   -34196516.840 8  21353325.737
  20928464.548   -41015109.906 7  20928463.964   -19159023.283 9  20928464.021
  21724090.678   -70388500.472 7  21724087.476   -24289688.308 8  21724090.180
  24379663.939     2286831.636 4  24379665.216    32721732.256 5  24379662.584
 15  7 30  0  8 30.0000000  0 11G 3G 8G14G16G19G21G23G26G27G31G32
  24471130.672    15350413.680 4  24471131.793    28901980.235 6  24471130.033
  21994144.531   -31220598.201 6  21994144.938   -14795225.960 8  21994143.934
  24471104.752    11155972.168 3  24471104.614    -8846853.477 4  24471102.929
  20811217.586   -50019883.627 7  20811213.734   -19639157.101 8  20811216.324
  23536531.099   -27309608.817 5  23536529.135    -8479416.494 6  23536529.627
  24942091.432   -19923364.714 3  24942088.635   -15306811.698 4  24942089.361
  22271402.441   -67512347.125 7  22271397.596     3117301.206 7  22271401.682
  21359543.703   -59721304.008 7  21359544.191   -34171057.228 8  21359543.307
  20913195.810   -41095347.948 7  20913195.168   -19221546.432 9  20913195.063
  21726495.073   -70375865.040 7  21726491.590   -24279842.547 8  21726494.537
  24389215.704     2337023.273 5  24389216.403    32760842.490 5  24389214.511
 15  7 30  0  9  0.0000000  0 11G 3G 8G14G16G19G21G23G26G27G31G32
  24477350.589    15383101.866 4  24477353.671    28927451.516 5  24477350.946
  21975490.095   -31318626.829 6  21975491.162   -14871611.868 8  21975489.228
  24490101.524    11255804.850 3  24490102.690    -8769061.898 4  24490101.014
  20811939.909   -50016087.942 7  20811936.218   -19636199.422 8  20811938.635
  23512610.982   -27435309.557 5  23512609.201    -8577365.041 6  23512607.930
  24938715.191   -19941105.632 3  24938712.217   -15320635.798 4  24938713.590
  22255304.680   -67596943.458 7  22255300.351     3051382.005 7  22255303.643
  21365775.785   -59688556.105 7  21365776.289   -34145539.396 8  21365775.282
  20898011.316   -41175142.704 7  20898010.827   -19283724.159 9  20898010.614
  21728938.193   -70363026.696 7  21728934.713   -24269838.671 8  21728937.342
  24398750.268     2387126.514 4  24398751.653    32799883.852 6  24398748.787
 15  7 30  0  9 30.0000000  0 11G 3G 8G14G16G19G21G23G26G27G31G32
  24483600.740    15415941.809 3  24483603.516    28953040.998 5  24483600.374
  21956894.454   -31416347.298 6  21956895.492   -14947757.661 8  21956893.957
  24509110.395    11355690.067 3  24509110.446    -8691229.371 4  24509108.530
  20812704.401   -50012070.563 7  20812700.818   -19633069.001 8  20812702.962
  23488712.984   -27560893.863 5  23488711.225    -8675222.857 6  23488711.530
  24935390.432   -19958573.718 3  24935388.838   -15334247.302 4  24935389.398
  22239282.953   -67681139.347 7  22239277.772     2985774.821 7  22239281.400
  21372021.562   -59655734.993 7  21372021.706   -34119964.515 8  21372020.750
  20882911.657   -41254492.227 7  20882911.052   -19345554.953 9  20882910.800
  21731419.734   -70349984.593 7  21731416.466   -24259676.028 8  21731419.461
  24408266.993     2437138.732 5  24408267.767    32838854.294 6  24408265.342
 15  7 30  0 10  0.0000000  0 11G 3G 8G14G16G19G21G23G26G27G31G32
  24489878.955    15448931.229 3  24489881.407    28978746.953 5  24489877.543
  21938357.900   -31513757.288 6  21938358.883   -15023661.512 8  21938357.300
  24528127.646    11455625.785 3  24528128.998    -8613357.475 4  24528126.800
  20813510.776   -50007832.928 7  20813507.176   -19629766.950 8  20813509.367
  23464837.903   -27686358.642 5  23464836.005    -8772987.529 6  23464836.293
  24932119.379   -19975766.925 2  24932117.349   -15347644.606 3  24932116.147
  22223337.331   -67764932.471 6  22223333.050     2920481.498 7  22223336.057
  21378280.977   -59622841.831 7  21378281.532   -34094333.492 8  21378280.084
  20867897.014   -41333394.215 7  20867896.597   -19407037.019 9  20867896.432
  21733941.157   -70336737.222 7  21733937.307   -24249353.435 8  21733940.203
  24417766.250     2487057.886 4  24417767.905    32877752.203 6  24417765.171
 15  7 30  0 10 30.0000000  0 11G 3G 8G14G16G19G21G23G26G27G31G32
  24496184.187    15482065.999 4  24496185.239    29004566.183 5  24496183.464
  21919880.998   -31610855.095 6  21919881.622   -15099322.117 8  21919880.228
  24547152.790    11555608.330 4  24547154.879    -8535449.087 4  24547151.716
  20814358.706   -50003377.884 7  20814354.755   -19626295.487 8  20814357.321
  23440985.926   -27811701.797 5  23440983.243    -8870657.434 6  23440983.947
  24928899.944   -19992684.982 2  24928897.036   -15360827.506 3  24928897.270
  22207468.995   -67848321.338 6  22207464.222     2855503.185 7  22207468.405
  21384553.613   -59589879.024 7  21384553.855   -34068648.200 8  21384552.821
  20852967.787   -41411847.690 7  20852967.334   -19468169.597 9  20852967.082
  21736500.674   -70323284.909 7  21736497.373   -24238871.144 8  21736500.158
  24427247.666     2536880.246 4  24427248.665    32916574.683 6  24427245.358
 15  7 30  0 11  0.0000000  0 11G 3G 8G14G16G19G21G23G26G27G31G32
  24502518.172    15515352.360 4  24502519.958    29030503.532 5  24502518.435
  21901465.515   -31707630.124 6  21901465.827   -15174731.206 8  21901464.334
  24566189.455    11655644.026 3  24566190.255    -8457499.288 4  24566187.800
  20815248.982   -49998698.061 7  20815245.295   -19622648.872 8  20815247.927
  23417158.880   -27936912.008 5  23417157.114    -8968223.730 7  23417158.068
  24925734.333   -20009317.830 2  24925731.527   -15373788.166 4  24925733.497
  22191679.889   -67931294.701 6  22191675.122     2790848.639 7  22191678.600
  21390840.947   -59556839.142 7  21390841.100   -34042902.854 8  21390840.141
  20838125.944   -41489841.892 7  20838125.566   -19528944.297 9  20838125.299
  21739101.463   -70309617.713 7  21739098.492   -24228221.420 8  21739100.849
  24436711.116     2586612.226 5  24436712.324    32955326.760 6  24436710.109
 15  7 30  0 11 30.0000000  0 11G 3G 8G14G16G19G21G23G26G27G31G32
  24508879.974    15548782.590 4  24508882.145    29056552.979 5  24508878.230
  21883110.761   -31804084.815 7  21883111.294   -15249890.684 8  21883109.591
  24585234.089    11755725.396 3  24585235.165    -8379513.900 4  24585233.141
  20816181.016   -49993800.313 7  20816177.370   -19618832.453 8  20816179.895
  23393357.587   -28061991.098 5  23393354.930    -9065687.870 7  23393355.875
  24922621.834   -20025668.843 2  24922621.402   -15386529.224 4  24922621.882
  22175968.986   -68013855.091 7  22175963.995     2726515.882 8  22175967.973
  21397141.616   -59523728.396 7  21397141.805   -34017102.285 8  21397141.037
  20823371.118   -41567379.663 7  20823370.477   -19589363.335 9  20823370.540
  21741742.605   -70295739.478 7  21741739.187   -24217407.256 8  21741741.825
  24446156.611     2636246.580 5  24446157.067    32994002.754 6  24446154.920
 15  7 30  0 12  0.0000000  0 11G 3G 8G14G16G19G21G23G26G27G31G32
  24515267.218    15582353.099 4  24515271.727    29082711.740 5  24515266.090
  21864817.209   -31900217.482 6  21864817.485   -15324799.229 8  21864816.151
  24604286.475    11855848.672 3  24604288.070    -8301495.854 4  24604285.591
  20817153.923   -49988687.809 7  20817150.227   -19614848.689 8  20817152.757
  23369581.284   -28186937.471 6  23369578.636    -9163048.595 7  23369579.044
  24919565.099   -20041737.570 3  24919563.348   -15399050.312 4  24919563.543
  22160336.932   -68096000.598 7  22160332.495     2662506.404 8  22160335.994
  21403455.197   -59490548.991 7  21403455.686   -33991248.214 8  21403454.805
  20808703.451   -41644459.861 7  20808702.615   -19649425.824 9  20808702.552
  21744423.391   -70281650.127 7  21744420.294   -24206428.584 8  21744422.734
  24455581.987     2685779.962 5  24455583.276    33032600.089 6  24455580.563
 15  7 30  0 12 30.0000000  0 11G 3G 8G14G16G19G21G23G26G27G31G32
  24521682.294    15616062.389 4  24521685.244    29108978.620 5  24521681.991
  21846585.741   -31996025.062 7  21846586.071   -15399454.467 8  21846585.229
  24623347.270    11956013.058 3  24623348.449    -8223445.758 4  24623345.909
  20818167.462   -49983360.741 7  20818163.855   -19610697.736 8  20818166.547
  23345830.586   -28311746.411 6  23345828.607    -9260302.218 7  23345829.054
  24916562.066   -20057521.409 3  24916560.276   -15411349.390 4  24916560.807
  22144784.506   -68177727.962 7  22144780.339     2598822.755 8  22144783.873
  21409782.269   -59457300.903 7  21409782.734   -33965340.630 8  21409781.487
  20794123.153   -41721079.271 7  20794122.488   -19709129.257 9  20794122.314
  21747145.339   -70267347.207 6  21747142.170   -24195283.493 8  21747144.694
  24464988.335     2735211.299 3  24464988.488    33071117.889 6  24464987.163
 15  7 30  0 13  0.0000000  0 11G 3G 8G14G16G19G21G23G26G27G31G32
  24528122.891    15649908.945 4  24528124.663    29135352.514 5  24528122.831
  21828417.047   -32091503.532 7  21828417.074   -15473853.265 8  21828416.193
  24642415.977    12056217.194 3  24642417.677    -8145364.701 4  24642414.583
  20819222.071   -49977819.147 7  20819218.672   -19606379.623 8  20819220.947
  23322107.463   -28436413.769 6  23322103.473    -9357445.538 7  23322105.460
  24913612.261   -20073017.628 2  24913611.215   -15423424.363 4  24913610.792
  22129313.104   -68259033.509 7  22129307.978     2535467.794 8  22129312.037
  21416122.313   -59423984.112 7  21416122.658   -33939379.501 8  21416121.522
  20779631.195   -41797234.550 7  20779630.580   -19768471.028 9  20779630.394
  21749908.340   -70252828.284 7  21749905.378   -24183970.089 8  21749907.833
  24474375.155     2784539.521 4  24474376.453    33109555.323 6  24474374.219
 15  7 30  0 13 30.0000000  0 11G 3G 8G14G16G19G21G23G26G27G31G32
  24534589.822    15683891.401 3  24534591.771    29161832.279 5  24534589.711
  21810311.325   -32186649.607 7  21810311.538   -15547993.050 8  21810310.545
  24661491.514    12156459.771 3  24661492.620    -8067253.708 3  24661490.168
  20820317.420   -49972064.202 7  20820313.517   -19601895.258 8  20820316.164
  23298411.288   -28560935.939 5  23298407.745    -9454475.719 7  23298409.307
  24910719.141   -20088223.678 3  24910718.880   -15435273.224 4  24910717.948
  22113922.746   -68339913.437 7  22113916.687     2472444.480 8  22113921.118
  21422475.344   -59390598.768 7  21422475.584   -33913364.951 8  21422474.720
  20765228.290   -41872922.592 7  20765227.660   -19827448.715 9  20765227.303
  21752712.787   -70238091.273 7  21752709.415   -24172486.742 8  21752712.077
  24483742.419     2833763.380 4  24483743.744    33147911.448 5  24483740.677
 15  7 30  0 14  0.0000000  0 11G 3G 8G14G16G19G21G23G26G27G31G32
  24541081.837    15718007.971 4  24541085.065    29188416.544 5  24541081.711
  21792269.233   -32281459.912 6  21792270.030   -15621871.197 8  21792268.558
  24680574.233    12256739.439 3  24680576.065    -7989113.784 3  24680572.512
  20821452.929   -49966096.205 7  20821449.125   -19597244.879 8  20821451.847
  23274743.663   -28685308.166 5  23274741.013    -9551389.064 6  23274742.308
  24907881.087   -20103136.849 3  24907880.373   -15446893.866 4  24907879.396
  22098613.295   -68420364.678 7  22098607.755     2409755.205 8  22098612.090
  21428841.197   -59357145.015 7  21428841.356   -33887297.108 8  21428840.492
  20750914.822   -41948140.368 7  20750914.324   -19886059.967 9  20750913.985
  21755559.176   -70223133.620 6  21755555.641   -24160831.469 8  21755558.399
  24493089.948     2882881.684 4  24493091.201    33186185.305 5  24493088.605
 15  7 30  0 14 30.0000000  0 11G 3G 8G14G16G19G21G23G26G27G31G32
  24547599.834    15752256.248 3  24547602.628    29215103.418 5  24547598.317
  21774291.797   -32375931.788 7  21774292.595   -15695485.632 8  21774291.120
  24699663.803    12357054.051 3  24699665.104    -7910946.644 4  24699661.191
  20822629.000   -49959916.558 7  20822625.519   -19592429.577 8  20822627.897
  23251105.696   -28809527.322 5  23251102.753    -9648183.149 6  23251105.154
  24905100.248   -20117755.773 3  24905097.996   -15458285.231 4  24905097.718
  22083385.772   -68500384.285 7  22083380.478     2347402.273 8  22083384.405
  21435220.208   -59323623.756 7  21435220.457   -33861176.659 8  21435219.377
  20736691.306   -42022885.589 7  20736690.677   -19944302.990 9  20736690.515
  21758447.418   -70207954.218 7  21758444.723   -24149003.396 8  21758447.421
  24502416.269     2931892.431 4  24502417.214    33224375.380 5  24502414.737
 15  7 30  0 15  0.0000000  0 11G 3G 8G14G16G19G21G23G26G27G31G32
  24554141.198    15786636.589 3  24554145.458    29241893.173 5  24554140.994
  21756379.579   -32470059.883 6  21756380.199   -15768832.190 8  21756378.931
  24718759.653    12457404.166 3  24718761.505    -7832751.816 4  24718757.344
  20823845.246   -49953524.150 7  20823841.639   -19587448.484 8  20823844.131
  23227497.697   -28933587.941 6  23227493.455    -9744853.689 6  23227496.381
  24902373.078   -20132076.037 2  24902372.169   -15469443.874 4  24902372.226
  22068241.339   -68579966.990 7  22068236.744     2285389.779 8  22068240.419
  21441612.314   -59290033.214 7  21441612.416   -33835002.226 8  21441611.498
  20722558.811   -42097153.342 7  20722558.071   -20002173.961 9  20722557.804
  21761379.302   -70192549.212 6  21761376.367   -24136999.534 8  21761378.759
  24511723.176     2980796.219 4  24511723.419    33262482.096 5  24511720.856
 15  7 30  0 15 30.0000000  0 11G 3G 8G14G16G19G21G23G26G27G31G32
  24560709.351    15821146.035 3  24560711.105    29268783.526 5  24560707.429
  21738533.392   -32563842.360 7  21738534.535   -15841909.449 8  21738532.463
  24737861.949    12557787.136 3  24737864.077    -7754531.412 4  24737860.180
  20825102.018   -49946920.743 7  20825098.459   -19582302.977 8  20825100.636
  23203921.484   -29057487.037 6  23203916.823    -9841398.377 7  23203919.098
  24899706.736   -20146096.072 2  24899704.718   -15480368.588 4  24899703.903
  22053180.741   -68659110.532 7  22053176.259     2223719.487 8  22053180.123
  21448017.511   -59256374.773 7  21448017.592   -33808774.885 8  21448016.645
  20708517.216   -42170941.894 7  20708516.592   -20059671.528 9  20708516.275
  21764353.776   -70176917.478 7  21764350.659   -24124819.007 8  21764353.324
  24521008.168     3029590.532 4  24521009.376    33300503.499 5  24521006.235
 15  7 30  0 16  0.0000000  0 11G 3G 8G14G16G19G21G23G26G27G31G32
  24567300.231    15855781.525 4  24567300.926    29295772.097 5  24567300.414
  21720753.101   -32657277.146 7  21720754.138   -15914715.769 8  21720752.267
  24756969.701    12658200.082 3  24756970.426    -7676287.626 4  24756968.483
  20826398.392   -49940108.562 7  20826394.558   -19576994.785 8  20826396.974
  23180374.819   -29181221.838 6  23180370.784    -9937815.047 7  23180373.611
  24897094.896   -20159815.210 3  24897094.266   -15491058.821 4  24897094.386
  22038204.195   -68737812.967 7  22038199.419     2162392.920 8  22038203.550
  21454434.809   -59222649.997 7  21454435.351   -33782495.857 8  21454434.296
  20694567.120   -42244249.678 8  20694566.473   -20116794.467 9  20694566.359
  21767371.934   -70161058.334 7  21767368.690   -24112461.273 8  21767371.155
  24530272.843     3078272.829 4  24530275.149    33338437.622 5  24530271.093
 15  7 30  0 16 30.0000000  0 11G 3G 8G14G16G19G21G23G26G27G31G32
  24573914.282    15890544.140 3  24573917.040    29322859.741 5  24573913.137
  21703040.307   -32750358.038 6  21703041.431   -15987246.329 8  21703039.773
  24776083.475    12758644.236 3  24776085.103    -7598019.531 3  24776083.286
  20827734.690   -49933085.322 7  20827730.994   -19571522.138 8  20827733.710
  23156861.434   -29304785.893 6  23156858.407   -10034098.652 7  23156859.294
  24894541.920   -20173228.670 2  24894541.803   -15501510.835 4  24894540.145
  22023312.541   -68816068.144 7  22023307.564     2101414.871 8  22023311.950
  21460865.906   -59188856.262 7  21460866.086   -33756163.094 8  21460864.826
  20680709.505   -42317071.032 7  20680708.809   -20173538.372 9  20680708.809
  21770433.819   -70144967.036 7  21770430.683   -24099922.641 8  21770433.235
  24539516.185     3126844.521 5  24539516.626    33376285.568 5  24539513.976
 15  7 30  0 17  0.0000000  0 11G 3G 8G14G16G19G21G23G26G27G31G32
  24580552.626    15925423.481 4  24580556.721    29350038.321 5  24580552.056
  21685394.214   -32843091.029 7  21685394.969   -16059505.794 8  21685393.494
  24795202.649    12859109.596 3  24795204.166    -7519734.924 3  24795200.332
  20829109.745   -49925860.499 7  20829105.914   -19565892.412 8  20829108.471
  23133379.636   -29428183.951 6  23133375.561   -10130252.924 7  23133377.306
  24892047.284   -20186342.349 3  24892045.120   -15511729.279 4  24892044.703
  22008505.567   -68893881.562 7  22008500.602     2040781.041 8  22008505.204
  21467307.675   -59155002.483 7  21467308.335   -33729783.546 8  21467307.127
  20666943.605   -42389411.854 7  20666942.870   -20229907.841 9  20666942.768
  21773538.881   -70128650.008 7  21773536.066   -24087208.115 8  21773538.263
  24548735.196     3175295.601 4  24548737.076    33414039.522 5  24548733.368
 15  7 30  0 17 30.0000000  0 11G 3G 8G14G16G19G21G23G26G27G31G32
  24587212.776    15960421.279 3  24587215.483    29377309.175 5  24587212.659
  21667815.514   -32935468.751 7  21667815.934   -16131488.429 8  21667814.408
  24814325.004    12959598.332 3  24814327.031    -7441432.100 2  24814322.726
  20830523.438   -49918431.369 7  20830519.570   -19560103.485 8  20830522.152
  23109930.142   -29551408.253 6  23109927.402   -10226271.771 7  23109928.592
  24889609.900   -20199150.521 3  24889608.215   -15521709.671 4  24889608.898
  21993783.787   -68971246.376 7  21993778.493     1980496.773 8  21993782.729
  21473762.189   -59121085.208 6  21473762.351   -33703354.522 8  21473761.544
  20653270.307   -42461265.653 7  20653269.642   -20285897.812 9  20653269.444
  21776688.251   -70112101.842 7  21776684.774   -24074313.480 8  21776687.550
  24557933.246     3223628.440 4  24557934.775    33451701.332 5  24557930.841
 15  7 30  0 18  0.0000000  0 11G 3G 8G14G16G19G21G23G26G27G31G32
  24593893.558    15995533.385 3  24593894.988    29404669.104 5  24593892.685
  21650304.340   -33027490.802 7  21650304.649   -16203193.911 8  21650303.270
  24833449.437    13060106.645 3  24833451.991    -7363114.009 2  24833448.882
  20831975.123   -49910801.230 7  20831971.651   -19554157.931 8  20831974.091
  23086514.786   -29674457.660 6  23086512.316   -10322154.346 7  23086513.305
  24887231.313   -20211653.811 3  24887229.913   -15531452.503 4  24887229.233
  21979147.005   -69048161.772 7  21979141.648     1920562.703 8  21979146.367
  21480227.924   -59087107.242 7  21480228.145   -33676878.197 8  21480227.144
  20639689.706   -42532632.257 7  20639689.008   -20341508.146 9  20639688.867
  21779880.849   -70095323.247 7  21779877.923   -24061239.288 8  21779880.400
  24567107.710     3271839.100 4  24567109.290    33489267.915 5  24567105.828
 15  7 30  0 18 30.0000000  0 11G 3G 8G14G16G19G21G23G26G27G31G32
  24600597.226    16030758.302 3  24600598.800    29432116.948 5  24600597.595
  21632861.480   -33119153.632 7  21632861.755   -16274619.476 8  21632860.457
  24852580.800    13160632.943 1  24852581.325    -7284781.895 2  24852579.391
  20833465.547   -49902970.408 7  20833461.818   -19548056.001 8  20833464.252
  23063133.016   -29797327.875 6  23063130.738   -10417897.281 7  23063131.709
  24884910.296   -20223849.552 3  24884908.371   -15540955.682 4  24884908.000
  21964596.545   -69124624.101 6  21964591.395     1860981.671 8  21964595.370
  21486705.335   -59053068.423 7  21486705.452   -33650354.459 8  21486704.508
  20626202.430   -42603508.566 7  20626201.693   -20396736.434 9  20626201.594
  21783118.116   -70078311.537 7  21783115.133   -24047983.460 8  21783117.346
  24576257.766     3319926.769 4  24576260.575    33526738.692 5  24576255.445
 15  7 30  0 19  0.0000000  0 10G 3G 8G16G19G21G23G26G27G31G32
  24607321.391    16066088.430 3  24607322.722    29459646.762 5  24607319.949
  21615486.306   -33210459.993 7  21615486.756   -16345767.275 8  21615485.455
  20834992.729   -49894945.221 7  20834988.999   -19541802.620 8  20834991.356
  23039785.443   -29920020.762 6  23039782.472   -10513502.056 7  23039783.654
  24882647.942   -20235740.997 3  24882646.129   -15550221.737 4  24882646.338
  21950132.132   -69200636.069 7  21950126.810     1801751.561 8  21950130.993
  21493193.189   -59018974.780 6  21493193.168   -33623788.007 8  21493192.445
  20612807.727   -42673897.662 7  20612807.223   -20451585.074 9  20612807.014
  21786399.243   -70061070.396 6  21786395.900   -24034548.851 8  21786398.529
  24585382.681     3367884.136 3  24585386.341    33564107.923 5  24585381.823
 15  7 30  0 19 30.0000000  0 10G 3G 8G16G19G21G23G26G27G31G32
  24614064.344    16101522.198 4  24614066.538    29487257.349 5  24614063.253
  21598179.674   -33301406.753 7  21598180.217   -16416634.861 8  21598178.808
  20836556.731   -49886726.464 7  20836553.014   -19535398.399 8  20836555.337
  23016472.302   -30042532.280 6  23016470.320   -10608965.500 7  23016470.584
  24880443.068   -20247325.726 3  24880441.563   -15559248.819 4  24880441.779
  21935754.520   -69276194.284 7  21935749.046     1742875.030 8  21935753.417
  21499691.445   -58984826.239 7  21499691.595   -33597178.776 8  21499690.654
  20599506.439   -42743796.597 7  20599505.969   -20506051.772 9  20599505.666
  21789724.199   -70043598.181 7  21789720.799   -24020934.179 8  21789723.662
  24594484.113     3415710.219 4  24594487.809    33601374.876 5  24594482.695
 15  7 30  0 20  0.0000000  0 10G 3G 8G16G19G21G23G26G27G31G32
  24620826.067    16137059.884 3  24620828.942    29514948.900 5  24620826.415
  21580942.331   -33391988.867 7  21580943.023   -16487218.306 8  21580941.671
  20838157.611   -49878312.622 7  20838154.130   -19528842.163 8  20838156.663
  22993194.290   -30164856.568 6  22993192.320   -10704283.065 7  22993192.233
  24878297.603   -20258599.823 3  24878295.696   -15568033.846 4  24878296.023
  21921463.018   -69351293.480 7  21921457.903     1684356.172 8  21921461.942
  21506200.542   -58950620.993 6  21506200.803   -33570525.373 8  21506199.925
  20586299.439   -42813200.674 7  20586298.630   -20560132.866 9  20586298.537
  21793093.656   -70025890.840 7  21793090.442   -24007136.298 8  21793093.195
  24603560.306     3463405.648 4  24603563.160    33638540.015 5  24603559.514
 15  7 30  0 20 30.0000000  0 10G 3G 8G16G19G21G23G26G27G31G32
  24627607.423    16172694.388 3  24627611.446    29542715.867 5  24627607.501
  21563774.068   -33482207.987 7  21563775.051   -16557518.893 8  21563773.306
  20839794.792   -49869710.164 7  20839791.306   -19522138.962 8  20839793.479
  22969952.268   -30286994.771 6  22969949.930   -10799455.613 7  22969950.169
  24876210.586   -20269566.355 3  24876209.465   -15576579.181 4  24876208.901
  21907258.734   -69425935.823 7  21907254.381     1626193.307 8  21907257.802
  21512719.607   -58916364.484 7  21512719.676   -33543832.011 8  21512718.822
  20573185.945   -42882112.542 8  20573185.060   -20613830.421 9  20573184.994
  21796507.570   -70007951.639 7  21796504.401   -23993157.746 8  21796506.928
  24612611.073     3510963.992 4  24612613.573    33675598.326 5  24612609.709
 15  7 30  0 21  0.0000000  0 10G 3G 8G16G19G21G23G26G27G31G32
  24634406.614    16208424.121 3  24634409.663    29570557.043 5  24634405.541
  21546675.723   -33572061.124 7  21546676.163   -16627534.300 8  21546675.057
  20841467.616   -49860919.590 7  20841464.124   -19515289.181 8  20841466.198
  22946746.320   -30408943.256 6  22946743.766   -10894480.338 7  22946744.986
  24874183.602   -20280223.105 3  24874181.096   -15584883.145 4  24874180.901
  21893142.347   -69500117.959 7  21893137.733     1568389.037 8  21893141.310
  21519247.990   -58882056.821 7  21519248.271   -33517098.790 8  21519247.249
  20560166.465   -42950529.504 7  20560165.641   -20667142.329 9  20560165.688
  21799965.598   -69989778.467 7  21799962.780   -23978996.883 8  21799965.160
  24621635.713     3558383.898 4  24621637.167    33712548.761 5  24621633.225
 15  7 30  0 21 30.0000000  0 10G 3G 8G16G19G21G23G26G27G31G32
  24641223.988    16244246.401 3  24641225.747    29598470.305 5  24641224.383
  21529647.008   -33661545.970 7  21529647.766   -16697262.730 8  21529646.693
  20843175.963   -49851942.327 7  20843172.251   -19508293.924 8  20843174.512
  22923577.334   -30530698.616 6  22923574.701   -10989354.583 7  22923575.892
  24872212.919   -20290568.096 3  24872212.221   -15592944.180 4  24872212.895
  21879114.188   -69573837.770 7  21879109.209     1510945.023 8  21879113.226
  21525786.016   -58847698.874 7  21525786.322   -33490326.385 8  21525785.372
  20547241.744   -43018449.620 8  20547241.006   -20720067.083 9  20547240.991
  21803468.742   -69971369.956 7  21803465.735   -23964652.643 8  21803468.049
  24630632.482     3605663.502 4  24630633.381    33749389.852 5  24630631.226
 15  7 30  0 22  0.0000000  0 10G 3G 8G16G19G21G23G26G27G31G32
  24648058.791    16280160.400 3  24648060.668    29626455.106 5  24648058.437
  21512689.823   -33750658.737 7  21512690.102   -16766701.223 8  21512688.758
  20844919.693   -49842778.110 7  20844916.111   -19501152.997 8  20844918.611
  22900445.842   -30652256.463 6  22900442.982   -11084074.916 7  22900443.234
  24870305.013   -20300599.212 3  24870303.406   -15600760.632 4  24870303.469
  21865174.430   -69647091.098 7  21865169.432     1453864.509 8  21865173.536
  21532334.146   -58813289.872 7  21532333.939   -33463514.210 8  21532333.199
  20534412.050   -43085869.416 7  20534411.475   -20772601.978 9  20534411.304
  21807017.031   -69952723.524 7  21807014.099   -23950123.000 8  21807016.405
  24639602.350     3652802.263 4  24639603.699    33786121.209 5  24639601.229
 15  7 30  0 22 30.0000000  0 10G 3G 8G16G19G21G23G26G27G31G32
  24654908.971    16316164.176 3  24654912.322    29654509.802 5  24654908.866
  21495803.134   -33839396.448 6  21495803.905   -16835847.466 8  21495802.675
  20846699.171   -49833427.985 7  20846695.316   -19493867.203 8  20846697.625
  22877351.990   -30773612.718 6  22877349.250   -11178638.182 7  22877350.350
  24868457.491   -20310314.206 3  24868454.568   -15608330.772 4  24868455.156
  21851324.123   -69719874.989 7  21851319.308     1397149.783 8  21851323.416
  21538891.435   -58778830.164 6  21538891.327   -33436662.515 8  21538890.760
  20521678.156   -43152786.473 7  20521677.571   -20824745.121 9  20521677.418
  21810610.913   -69933837.283 7  21810608.080   -23935406.495 8  21810610.278
  24648546.262     3699798.948 4  24648546.445    33822741.862 5  24648545.096
 15  7 30  0 23  0.0000000  0 10G 3G 8G16G19G21G23G26G27G31G32
  24661777.081    16352257.027 2  24661779.440    29682633.932 5  24661776.251
  21478989.016   -33927755.154 7  21478989.931   -16904698.376 8  21478988.333
  20848513.806   -49823891.526 7  20848509.996   -19486436.216 8  20848512.376
  22854298.274   -30894762.797 6  22854295.608   -11273040.782 7  22854295.872
  24866669.664   -20319709.878 3  24866666.555   -15615652.073 4  24866666.630
  21837563.862   -69792185.520 7  21837559.083     1340803.913 8  21837563.248
  21545458.598   -58744318.900 6  21545459.027   -33409770.648 8  21545457.948
  20509040.606   -43219197.317 7  20509039.898   -20876493.818 9  20509039.751
  21814251.404   -69914708.493 7  21814248.172   -23920500.995 8  21814250.277
  24657462.345     3746653.070 3  24657462.558    33859251.430 5  24657461.089
 15  7 30  0 23 30.0000000  0 10G 3G 8G16G19G21G23G26G27G31G32
  24668661.968    16388434.694 3  24668665.101    29710824.116 4  24668661.716
  21462247.244   -34015733.965 7  21462247.973   -16973253.269 8  21462246.513
  20850363.310   -49814171.996 7  20850359.910   -19478862.570 8  20850361.919
  22831283.593   -31015704.892 6  22831280.472   -11367281.317 7  22831282.352
  24864941.831   -20328786.746 3  24864939.004   -15622724.964 4  24864939.864
  21823894.067   -69864021.961 7  21823889.045     1284827.456 8  21823892.807
  21552035.211   -58709758.482 7  21552035.670   -33382840.490 8  21552034.633
  20496499.412   -43285101.672 8  20496498.695   -20927847.845 9  20496498.575
  21817937.505   -69895337.525 7  21817934.321   -23905406.780 8  21817937.151
  24666350.355     3793361.236 4  24666351.018    33895647.233 5  24666349.623
 15  7 30  0 24  0.0000000  0 10G 3G 8G16G19G21G23G26G27G31G32
  24675561.691    16424694.091 3  24675564.992    29739077.993 4  24675561.814
  21445578.052   -34103331.498 7  21445578.709   -17041511.064 8  21445577.036
  20852247.293   -49804271.523 7  20852243.821   -19471147.926 8  20852245.761
  22808309.016   -31136436.512 6  22808306.171   -11461357.854 7  22808307.008
  24863276.025   -20337543.881 3  24863272.569   -15629548.714 4  24863273.204
  21810314.416   -69935382.404 6  21810309.364     1229221.907 8  21810313.600
  21558620.824   -58675150.433 6  21558621.142   -33355873.205 8  21558620.321
  20484055.015   -43350498.424 7  20484054.184   -20978806.334 9  20484054.181
  21821669.972   -69875723.539 6  21821666.896   -23890123.206 8  21821669.532
  24675210.787     3839920.702 4  24675211.821    33931927.214 5  24675209.018
 15  7 30  0 24 30.0000000  0 10G 3G 8G16G19G21G23G26G27G31G32
  24682477.606    16461034.237 3  24682480.793    29767394.813 5  24682476.494
  21428982.084   -34190543.932 7  21428982.828   -17109468.784 8  21428981.140
  20854165.925   -49794189.794 7  20854162.304   -19463292.044 8  20854164.588
  22785375.439   -31256953.177 6  22785372.360   -11555266.891 7  22785373.802
  24861669.851   -20345978.380 3  24861668.559   -15636121.039 4  24861668.025
  21796826.435   -70006263.066 7  21796821.096     1173990.223 8  21796825.491
  21565215.680   -58640494.018 6  21565216.231   -33328868.231 8  21565215.188
  20471707.607   -43415384.320 7  20471706.695   -21029366.753 9  20471706.764
  21825449.021   -69855864.352 7  21825446.101   -23874648.564 8  21825448.568
  24684042.430     3886331.131 4  24684043.998    33968091.037 5  24684040.844
 15  7 30  0 25  0.0000000  0 10G 3G 8G16G19G21G23G26G27G31G32
  24689408.997    16497450.244 3  24689410.355    29795770.729 5  24689407.177
  21412459.410   -34277371.362 7  21412460.288   -17177126.505 8  21412458.403
  20856118.207   -49783930.824 7  20856114.666   -19455298.056 8  20856117.059
  22762482.777   -31377254.172 6  22762479.674   -11649007.866 7  22762481.317
  24860126.609   -20354091.801 3  24860124.529   -15642443.203 4  24860124.145
  21783429.487   -70076664.256 7  21783424.429     1119132.139 8  21783428.776
  21571819.508   -58605792.492 7  21571819.757   -33301828.115 8  21571818.753
  20459457.262   -43479759.971 7  20459456.315   -21079529.581 9  20459456.357
  21829274.715   -69835761.117 7  21829271.537   -23858983.761 8  21829274.061
  24692845.719     3932588.094 4  24692846.636    34004135.266 5  24692844.334
 15  7 30  0 25 30.0000000  0 10G 3G 8G16G19G21G23G26G27G31G32
  24696352.514    16533943.029 3  24696355.107    29824206.490 5  24696352.028
  21396011.276   -34363807.840 7  21396011.914   -17244479.585 8  21396010.106
  20858104.485   -49773492.689 7  20858100.629   -19447164.455 8  20858103.334
  22739632.689   -31497332.666 6  22739629.655   -11742575.460 7  22739631.397
  24858642.826   -20361879.136 4  24858641.869   -15648511.259 4  24858642.412
  21770124.772   -70146580.159 7  21770120.194     1064652.203 8  21770123.699
  21578432.195   -58571043.173 6  21578432.504   -33274750.752 8  21578431.284
  20447304.896   -43543620.210 8  20447304.276   -21129290.788 9  20447304.231
  21833147.520   -69815408.984 7  21833144.385   -23843125.004 8  21833146.849
  24701618.947     3978693.243 4  24701621.771    34040061.232 5  24701617.619
 15  7 30  0 26  0.0000000  0 10G 3G 8G16G19G21G23G26G27G31G32
  25003102.984    15527044.382 3  25003106.111    32307898.805 5  25003102.582
  21679430.365   -31299009.069 7  21679431.174   -14856324.679 8  21679429.756
  21159916.986   -46612037.533 7  21159913.350   -16983692.917 8  21159915.781
  23016618.286   -28466342.248 6  23016614.949    -9380764.696 7  23016616.211
  25157015.847   -17218499.106 3  25157015.557   -13199124.249 4  25157016.321
  22056705.835   -67065166.726 6  22056701.129     3465753.571 8  22056705.089
  21884845.369   -55385408.514 6  21884846.052   -30792438.057 8  21884844.955
  20735043.917   -40456121.763 7  20735043.155   -22917751.826 9  20735043.134
  22136860.155   -66643968.203 6  22136856.974   -21371872.500 8  22136859.420
  25010155.245     2981178.459 4  25010156.993    36531065.694 5  25010153.860
 15  7 30  0 26 30.0000000  0 10G 3G 8G16G19G21G23G26G27G31G32
  25010076.645    15563687.997 3  25010078.417    32336452.079 5  25010075.512
  21663133.086   -31384652.705 7  21663133.563   -14923059.961 8  21663132.127
  21161971.527   -46601240.438 7  21161968.007   -16975279.610 8  21161970.208
  22993855.278   -28585961.737 6  22993852.943    -9473974.646 7  22993853.324
  25155660.618   -17225625.415 2  25155659.307   -13204677.267 4  25155658.024
  22043588.503   -67134100.597 6  22043583.473     3412038.854 8  22043587.394
  21891477.105   -55350561.264 7  21891477.605   -30765284.388 8  21891476.298
  20723089.723   -40518941.396 7  20723088.967   -22966702.180 9  20723088.982
  22140829.218   -66623110.272 7  22140826.406   -21355619.605 8  22140828.792
  25018870.020     3026978.738 3  25018873.575    36566754.089 5  25018867.750
 15  7 30  0 27  0.0000000  0 10G 3G 8G16G19G21G23G26G27G31G32
  25017063.752    15600405.406 3  25017066.642    32365062.833 5  25017062.874
  21646911.946   -31469894.991 7  21646912.254   -14989482.498 8  21646910.893
  21164060.193   -46590263.789 7  21164056.634   -16966726.390 8  21164059.051
  22971137.431   -28705345.210 6  22971134.589    -9567000.688 7  22971135.849
  25154368.584   -17232417.549 2  25154366.455   -13209969.839 4  25154365.862
  22030564.982   -67202538.026 7  22030560.111     3358710.973 8  22030564.176
  21898117.667   -55315664.118 6  21898118.140   -30738091.831 8  21898117.223
  20711235.515   -40581236.150 7  20711234.589   -23015243.534 9  20711234.700
  22144847.300   -66601995.828 6  22144844.155   -21339166.842 8  22144846.662
  25027556.839     3072625.943 3  25027559.741    36602323.234 5  25027554.048
 15  7 30  0 27 30.0000000  0 10G 3G 8G16G19G21G23G26G27G31G32
  25024064.035    15637189.892 3  25024066.733    32393725.914 5  25024063.426
  21630766.893   -31554737.070 7  21630767.447   -15055593.183 8  21630766.068
  21166182.148   -46579113.277 7  21166178.715   -16958037.690 8  21166180.928
  22948463.792   -28824493.588 6  22948460.860    -9659843.531 7  22948463.079
  25153139.792   -17238877.847 3  25153137.121   -13215003.853 4  25153137.921
  22017635.578   -67270480.871 7  22017631.024     3305768.497 8  22017634.697
  21904767.312   -55280721.948 6  21904767.357   -30710864.202 8  21904766.545
  20699480.698   -40643008.438 8  20699479.789   -23063377.777 9  20699479.774
  22148913.388   -66580627.859 7  22148910.357   -21322516.515 8  22148912.768
  25036212.875     3118113.865 3  25036215.885    36637768.248 5  25036209.785
 15  7 30  0 28  0.0000000  0 10G 3G 8G16G19G21G23G26G27G31G32
  25031075.002    15674039.347 2  25031080.021    32422439.664 4  25031074.190
  21614698.712   -31639176.937 7  21614699.132   -15121390.456 8  21614697.759
  21168337.131   -46567789.970 7  21168333.276   -16949214.339 8  21168335.704
  22925836.348   -28943403.131 6  22925833.332    -9752500.273 7  22925834.774
  25151972.799   -17245004.844 3  25151971.438   -13219778.151 4  25151971.246
  22004801.112   -67337926.691 6  22004796.558     3253213.299 8  22004800.435
  21911424.698   -55245735.262 6  21911425.313   -30683601.873 8  21911424.234
  20687825.429   -40704256.457 8  20687824.623   -23111103.500 9  20687824.680
  22153028.256   -66559004.633 7  22153025.429   -21305667.289 8  22153027.767
  25044838.576     3163440.879 3  25044841.367    36673087.886 5  25044837.158
 15  7 30  0 28 30.0000000  0 10G 3G 8G16G19G21G23G26G27G31G32
  25038101.166    15710953.814 2  25038103.076    32451204.008 4  25038100.726
  21598707.768   -31723209.856 7  21598708.172   -15186870.624 8  21598706.871
  21170524.906   -46556292.694 7  21170521.230   -16940255.430 8  21170523.368
  22903254.682   -29062068.451 6  22903252.562    -9844966.712 7  22903253.183
  25150871.919   -17250795.396 3  25150870.117   -13224290.276 4  25150869.454
  21992062.256   -67404870.758 6  21992057.567     3201049.085 8  21992061.258
  21918091.357   -55210702.236 6  21918091.657   -30656303.448 8  21918090.710
  20676270.975   -40764976.016 8  20676270.178   -23158417.438 9  20676270.136
  22157192.487   -66537122.730 7  22157189.300   -21288616.495 8  22157192.067
  25053433.500     3208607.798 3  25053436.060    36708282.778 5  25053431.479
 15  7 30  0 29  0.0000000  0 10G 3G 8G16G19G21G23G26G27G31G32
  25045135.598    15747928.296 2  25045140.278    32480015.085 4  25045134.300
  21582794.205   -31806836.029 7  21582794.664   -15252033.844 8  21582793.189
  21172744.998   -46544625.438 7  21172741.505   -16931164.066 8  21172743.688
  22880720.434   -29180488.852 6  22880717.340    -9937242.320 7  22880719.046
  25149833.255   -17256250.853 4  25149831.444   -13228541.317 4  25149831.624
  21979418.701   -67471313.262 6  21979413.695     3149275.697 8  21979417.712
  21924766.101   -55175626.127 7  21924766.911   -30628971.455 8  21924765.343
  20664816.778   -40825168.048 7  20664815.957   -23205320.321 9  20664815.942
  22161405.347   -66514983.454 7  22161402.436   -21271365.161 8  22161404.913
  25061995.959     3253610.203 3  25062000.588    36743349.486 5  25061994.634
 15  7 30  0 29 30.0000000  0 10G 3G 8G16G19G21G23G26G27G31G32
  25052183.000    15784959.249 3  25052186.354    32508870.192 4  25052181.725
  21566958.101   -31890054.489 7  21566958.505   -15316879.365 8  21566957.276
  21174997.126   -46532790.790 7  21174993.588   -16921942.271 8  21174995.725
  22858232.936   -29298662.338 6  22858230.237   -10029325.517 7  22858230.525
  25148858.755   -17261370.632 3  25148856.807   -13232530.767 4  25148858.273
  21966870.801   -67537253.189 7  21966865.713     3097893.930 8  21966869.976
  21931448.913   -55140508.697 6  21931449.108   -30601607.268 8  21931447.930
  20653463.125   -40884832.088 8  20653462.253   -23251811.784 9  20653462.211
  22165666.969   -66492586.861 7  22165663.923   -21253913.309 8  22165666.756
  25070528.598     3298445.182 3  25070531.404    36778285.724 5  25070526.257
 15  7 30  0 30  0.0000000  0 10G 3G 8G16G19G21G23G26G27G31G32
  25059240.950    15822046.543 3  25059244.785    32537769.208 5  25059240.579
  21551200.955   -31972860.715 7  21551201.273   -15381403.669 8  21551199.867
  21177281.451   -46520787.434 7  21177277.572   -16912589.016 8  21177280.300
  22835793.017   -29416583.245 6  22835789.723   -10121211.884 7  22835791.381
  25147948.615   -17266151.415 3  25147946.472   -13236256.060 4  25147947.959
  21954419.353   -67602686.273 7  21954414.514     3046907.108 8  21954418.345
  21938139.642   -55105348.258 6  21938140.304   -30574209.560 8  21938138.755
  20642210.766   -40943964.190 8  20642209.851   -23297888.751 9  20642209.732
  22169978.743   -66469929.479 6  22169976.036   -21236258.242 8  22169978.407
  25079028.752     3343113.311 3  25079031.192    36813091.959 4  25079026.584
 15  7 30  0 30 30.0000000  0 10G 3G 8G16G19G21G23G26G27G31G32
  25066308.459    15859183.978 3  25066311.759    32566707.325 5  25066307.853
  21535521.291   -32055256.386 7  21535521.645   -15445608.057 8  21535520.754
  21179596.676   -46508620.722 7  21179593.022   -16903108.483 8  21179595.387
  22813401.519   -29534252.203 6  22813399.042   -10212901.934 7  22813399.930
  25147103.851   -17270595.548 3  25147101.072   -13239719.051 4  25147101.807
  21942063.829   -67667614.263 7  21942059.027     2996313.868 8  21942062.969
  21944837.746   -55070149.301 6  21944838.037   -30546781.838 8  21944836.850
  20631058.921   -41002566.630 7  20631058.172   -23343552.986 9  20631058.127
  22174339.620   -66447013.858 7  22174336.712   -21218401.953 8  22174339.104
  25087496.003     3387608.853 3  25087498.254    36847763.720 4  25087494.501
 15  7 30  0 31  0.0000000  0 10G 3G 8G16G19G21G23G26G27G31G32
  25073383.537    15896368.683 2  25073389.299    32595682.278 5  25073382.778
  21519920.361   -32137239.617 7  21519920.916   -15509491.060 8  21519919.462
  21181942.654   -46496292.245 7  21181939.219   -16893501.897 8  21181941.506
  22791058.059   -29651666.728 6  22791055.439   -10304393.725 7  22791056.746
  25146321.918   -17274702.420 3  25146320.590   -13242919.209 4  25146320.452
  21929805.085   -67732035.049 7  21929799.731     2946115.851 8  21929804.401
  21951543.171   -55034912.788 6  21951543.603   -30519324.853 8  21951542.442
  20620008.421   -41060638.209 8  20620007.459   -23388803.569 9  20620007.513
  22178749.651   -66423839.214 6  22178746.662   -21200343.838 8  22178749.228
  25095930.172     3431929.704 4  25095933.062    36882299.372 4  25095928.649
 15  7 30  0 31 30.0000000  0 10G 3G 8G16G19G21G23G26G27G31G32
  25080469.464    15933597.258 2  25080473.389    32624691.433 5  25080467.905
  21504397.950   -32218809.411 7  21504398.208   -15573051.903 8  21504397.294
  21184318.914   -46483804.531 7  21184315.539   -16883771.231 8  21184317.574
  22768764.283   -29768824.592 6  22768761.181   -10395685.513 7  22768762.428
  25145604.838   -17278472.220 3  25145602.796   -13245856.723 4  25145603.198
  21917643.002   -67795947.506 7  21917637.915     2896313.936 8  21917642.568
  21958255.116   -54999640.473 6  21958255.776   -30491839.968 8  21958254.400
  20609058.688   -41118178.524 7  20609057.977   -23433640.182 9  20609057.932
  22183208.446   -66400405.725 7  22183205.796   -21182084.018 8  22183208.174
  25104330.552     3476073.061 4  25104333.175    36916696.712 4  25104328.861
 15  7 30  0 32  0.0000000  0 11G 3G 8G 9G16G19G21G23G26G27G31G32
  25087561.744    15970865.208 1  25087563.837    32653731.275 4  25087559.283
  21488954.408   -32299966.101 7  21488954.885   -15636290.855 8  21488953.656
  24595298.934   -28558963.50013
  21186724.815   -46471161.180 7  21186720.971   -16873919.289 8  21186723.771
  22746518.694   -29885724.585 6  22746515.198   -10486776.365 7  22746516.712
  25144951.728   -17281905.457 4  25144949.504   -13248531.994 4  25144948.868
